object_id,url,標題,價格(元/月),押金(元),管理費(元),地址,行政區,路段,緯度,經度,格局,房,廳,衛,廚,陽台,可住人數,房型,建物型態,坪數,樓層,總樓層,最短租期(月),刊登日,出租方類型,特色標籤
x6usjoezxmzqg4xv,https://www.dd-room.com/object/x6usjoezxmzqg4xv,(屋齡0年)西門站捷運|西門町|電梯大樓|共生宅|北門站,16000,32000,0,臺北市萬華區開封街二段,萬華區,開封街二段,25.0465997,121.5068178,4房1廳2衛1廚2陽台,4,1,2,1,2,1~2,雅房,elevator,49,7,15,12,2026-07-16,individual,可開伙、對外窗、氣密窗、有飲水機、有電梯、垃圾代收、包裹代收、定期清潔、免仲介費、共生公寓、電費照台電、水費照台水、智慧宅、保全設施、可無火煮食
7ewpqt1pdr888mpi,https://www.dd-room.com/object/7ewpqt1pdr888mpi,(屋齡0年)西門站捷運|西門町|電梯大樓|共生宅|北門站,18000,36000,0,臺北市萬華區開封街二段,萬華區,開封街二段,25.0465997,121.5068178,4房1廳2衛1廚2陽台,4,1,2,1,2,1~2,雅房,elevator,49,7,15,12,2026-07-16,individual,可開伙、有飲水機、對外窗、氣密窗、有電梯、垃圾代收、包裹代收、定期清潔、免仲介費、電費照台電、水費照台水、共生公寓、智慧宅
pehsslpeuxchaoyj,https://www.dd-room.com/object/pehsslpeuxchaoyj,(屋齡0年)西門站捷運|西門町|電梯大樓|共生宅|北門站,22000,44000,0,臺北市萬華區開封街二段,萬華區,開封街二段,25.0465997,121.5068178,4房1廳2衛1廚2陽台,4,1,2,1,2,1~2,雅房,elevator,49,7,15,12,2026-07-16,individual,可開伙、可無火煮食、氣密窗、對外窗、有電梯、垃圾代收、包裹代收、定期清潔、免仲介費、電費照台電、水費照台水、有陽台、智慧宅、保全設施
wf2a72zrdk4hpcf1,https://www.dd-room.com/object/wf2a72zrdk4hpcf1,中山捷運站1分鐘，全新裝潢，精品雅房，生活機能完善,23000,0,0,臺北市大同區赤峰街,大同區,赤峰街,25.0552168,121.5196301,1房,1,0,0,0,0,1,雅房,apt,6.5,4,4,12,2026-07-16,individual,
9uboc8yptboe2scu,https://www.dd-room.com/object/9uboc8yptboe2scu,近捷運松江南京站【超值電梯】可補助★大空間★光華商場,15999,31998,0,臺北市中山區松江路,中山區,松江路,25.0720372,121.5314822,1房1衛,1,0,1,0,0,2,獨立套房,elevator,10,6,6,12,2026-07-16,broker,有電梯、租金補貼
h6r66lscczwwuvlw,https://www.dd-room.com/object/h6r66lscczwwuvlw,捷運圓山2分【優質電梯】可報稅★大空間★警衛管理,22999,45998,0,臺北市大同區承德路三段,大同區,承德路三段,25.0671933,121.5184595,1房1衛,1,0,1,0,0,2,獨立套房,elevator,10,7,7,12,2026-07-16,broker,
o53qckeafn55jyck,https://www.dd-room.com/object/o53qckeafn55jyck,捷運內湖站【超值租案】新裝潢★垃圾代收★小資首選,8499,16998,0,臺北市內湖區內湖路三段,內湖區,內湖路三段,25.1015132,121.570029,1房1衛,1,0,1,0,0,2,獨立套房,apt,3,5,6,12,2026-07-16,broker,可開伙、垃圾代收
ivwc0f7xxyoxvymi,https://www.dd-room.com/object/ivwc0f7xxyoxvymi,捷運台電大樓1分【優質1＋１房】開伙電★垃圾代收★警衛管理,38499,76998,2851,臺北市大安區羅斯福路三段,大安區,羅斯福路三段,25.0210343,121.5293258,1房1廳1衛,1,1,1,0,0,1,整層,elevator,9,14,16,12,2026-07-16,broker,可開伙、有電梯、垃圾代收
gn1oqvzfmtvi6xwf,https://www.dd-room.com/object/gn1oqvzfmtvi6xwf,忠孝敦化1分【優質電梯】警衛管理★垃圾代收★獨洗衣機,37999,75998,4023,臺北市大安區敦化南路一段,大安區,敦化南路一段,25.0420962,121.5491292,1房1衛,1,0,1,0,0,2,獨立套房,elevator,7,7,9,12,2026-07-16,broker,有電梯、垃圾代收
dikopoacdc21z9vo,https://www.dd-room.com/object/dikopoacdc21z9vo,近捷運象山【優質租案】免爬梯★大空間★獨立衛浴,16999,33998,0,臺北市信義區信義路六段,信義區,信義路六段,25.0349379,121.5765026,1房1衛,1,0,1,0,0,2,獨立套房,apt,10,1,5,12,2026-07-16,broker,
pwz0wyoq89n7ewmg,https://www.dd-room.com/object/pwz0wyoq89n7ewmg,近捷運公館【優質電梯】獨洗陽台★警衛管理★垃圾代收,29999,59998,690,臺北市文山區羅斯福路四段,文山區,羅斯福路四段,25.0103997,121.5371773,1房1衛1陽台,1,0,1,0,1,2,獨立套房,elevator,15,6,10,12,2026-07-16,broker,可開伙、有電梯、垃圾代收、有陽台
y4edvbdkhezvigmz,https://www.dd-room.com/object/y4edvbdkhezvigmz,忠孝敦化站&國父紀念館站5分鐘/可租補/可開伙/文青套房,18500,37000,650,臺北市大安區忠孝東路四段,大安區,忠孝東路四段,25.0415416,121.5510456,5房1廳3衛1廚1陽台,5,1,3,1,1,2,分租套房,apt,5,4,5,12,2026-07-16,individual,可開伙、有飲水機、對外窗、水泥隔間、垃圾代收、定期清潔、免仲介費、電費照台電、水費照台水、可報稅、共生公寓、有陽台、租金補貼
ctvlizpmhygzj45s,https://www.dd-room.com/object/ctvlizpmhygzj45s,兆基社會住宅🏡友善屋源🧡近社子市場/可租補入籍/免仲,26000,52000,0,臺北市士林區環河北路三段,士林區,環河北路三段,25.0836784,121.5068808,3房2廳2衛1陽台,3,2,2,0,1,3,整層,apt,36.3,4,5,12,2026-07-16,broker,可無火煮食、可養貓、租金補貼、可報稅、可入籍、社會住宅、免仲介費、有陽台、可開伙
eevwljmvad6kbxra,https://www.dd-room.com/object/eevwljmvad6kbxra,兆基社會住宅🏠友善屋源🧡近南軟/4房使用空間大/可入籍補,30000,60000,0,臺北市南港區研究院路二段,南港區,研究院路二段,25.0393798,121.6174071,4房2廳2衛2陽台,4,2,2,0,2,4,整層,apt,38.1,3,4,12,2026-07-16,broker,可無火煮食、租金補貼、可報稅、可入籍、社會住宅、免仲介費、有陽台、可開伙
k6y5ykshc5g1qb79,https://www.dd-room.com/object/k6y5ykshc5g1qb79,兆基社會住宅🏠友善屋源🧡西門商圈🧡免爬高🧡可申請租補,22000,44000,50,臺北市萬華區西昌街,萬華區,西昌街,25.0422342,121.5006996,1房1廳1衛1陽台,1,1,1,0,1,1,整層,elevator,10.8,1,7,12,2026-07-16,broker,可無火煮食、租金補貼、可報稅、可入籍、社會住宅、免仲介費、有陽台、可開伙
00xmb3jxll98gejr,https://www.dd-room.com/object/00xmb3jxll98gejr,兆基社會住宅🏠1.整理中.可租補,30000,60000,0,臺北市北投區中和街,北投區,中和街,25.1405111,121.5002439,3房2廳1衛,3,2,1,0,0,3,整層,apt,26.9,4,4,12,2026-07-16,broker,可無火煮食、免仲介費、社會住宅、租金補貼、可報稅、可入籍
258nny8j5dxlg8hr,https://www.dd-room.com/object/258nny8j5dxlg8hr,兆基社會住宅🏠友善屋源🧡捷運永春站、可租補入籍免仲介費,21500,43000,600,臺北市信義區松山路,信義區,松山路,25.0349996,121.5797394,1房1廳1衛1陽台,1,1,1,0,1,2,獨立套房,elevator,15.1,11,15,12,2026-07-16,broker,可無火煮食、可報稅、有電梯、有陽台、可入籍、社會住宅、免仲介費、可開伙、租金補貼
utn6gyuubcsuytlp,https://www.dd-room.com/object/utn6gyuubcsuytlp,2.兆基社會住宅🏠友善屋源🧡文化大學凱旋苑獨立套房雙床房,8000,0,800,臺北市士林區凱旋路,士林區,凱旋路,25.1362122,121.5444527,1房1衛1陽台,1,0,1,0,1,2,獨立套房,apt,5.2,3,5,12,2026-07-16,broker,可報稅、有陽台、可入籍、社會住宅、免仲介費、租金補貼
gyq7sumtrugejxqo,https://www.dd-room.com/object/gyq7sumtrugejxqo,兆基社會住宅🏠友善屋源🧡貴陽街市場內可租補/陽台大1房,20000,40000,0,臺北市萬華區貴陽街二段,萬華區,貴陽街二段,25.0393921,121.5063921,1房1廳1衛1陽台,1,1,1,0,1,1,整層,apt,24.8,3,5,12,2026-07-16,broker,可無火煮食、可報稅、可入籍、社會住宅、免仲介費、有陽台、可開伙、租金補貼
mjkluzdinao5uxh5,https://www.dd-room.com/object/mjkluzdinao5uxh5,近士東國小士東市場高島屋可租金補助,43000,86000,1800,臺北市士林區士東路,士林區,士東路,25.1129284,121.5352283,3房2廳2衛1廚1陽台,3,2,2,1,1,3,整層,elevator,36.7,2,7,12,2026-07-16,broker,可開伙、對外窗、保全設施、包裹代收、社會住宅、有電梯、水泥隔間、電費照台電、水費照台水、可報稅、有陽台、租金補貼、可入籍
jdmutgf4bxur6woc,https://www.dd-room.com/object/jdmutgf4bxur6woc,兆基社會住宅🏠友善屋源🧡文山區.全室油漆.低樓層.優質三,30000,60000,0,臺北市文山區興隆路四段,文山區,興隆路四段,24.989967,121.5595526,3房2廳1衛1陽台,3,2,1,0,1,3,整層,apt,28.6,2,4,12,2026-07-16,broker,可無火煮食、可報稅、可入籍、社會住宅、免仲介費、有陽台、租金補貼、可開伙
uxv8i1qp3umfzmph,https://www.dd-room.com/object/uxv8i1qp3umfzmph,兆基社會住宅🏠中正紀念堂/大露臺可寵/可租補入籍,39000,78000,1500,臺北市中正區金華街,中正區,金華街,25.0307433,121.5230236,2房2廳2衛1陽台,2,2,2,0,1,2,整層,elevator,39,8,9,12,2026-07-16,broker,可無火煮食、可養貓、可報稅、有電梯、可入籍、社會住宅、免仲介費、有陽台、租金補貼、可開伙
u8bchuvq9pfznuwl,https://www.dd-room.com/object/u8bchuvq9pfznuwl,兆基社會住宅🏠友善屋源🧡台北晶麒/精美一房一廳/可寵/可,39000,78000,2620,臺北市萬華區康定路,萬華區,康定路,25.0368274,121.5015066,1房1廳1衛1陽台,1,1,1,0,1,1,整層,elevator,14.9,13,26,12,2026-07-16,broker,可無火煮食、可養貓、可報稅、有電梯、可入籍、社會住宅、免仲介費、有陽台、可開伙、租金補貼
ujrbx9jvwkybfr7q,https://www.dd-room.com/object/ujrbx9jvwkybfr7q,兆基社會住宅🏠友善屋源🧡龍山寺站/寵可談/免爬高/可租補,23000,46000,0,臺北市萬華區環河南路二段,萬華區,環河南路二段,25.036949,121.4957855,2房1廳1衛1陽台,2,1,1,0,1,2,整層,apt,19.6,2,5,12,2026-07-16,broker,可無火煮食、可報稅、可入籍、社會住宅、免仲介費、有陽台、可開伙、租金補貼
xjalylqk8txlyfua,https://www.dd-room.com/object/xjalylqk8txlyfua,兆基社會住宅🏠近螢橋國中/台師大商圈/可租補,35000,70000,0,臺北市中正區水源路,中正區,水源路,25.0240425,121.5147413,2房1廳1衛1陽台,2,1,1,0,1,2,整層,elevator,18,8,13,12,2026-07-16,broker,可無火煮食、可報稅、有電梯、可入籍、社會住宅、免仲介費、有陽台、可開伙、租金補貼
iwjhw7w7ra2y0ukd,https://www.dd-room.com/object/iwjhw7w7ra2y0ukd,兆基社會住宅🏠友善屋源🧡捷運中山站/可租補入籍/晶華酒店,32000,64000,1820,臺北市中山區新生北路二段,中山區,新生北路二段,25.0297486,121.5327247,2房2廳1衛2陽台,2,2,1,0,2,2,整層,elevator,22,14,15,12,2026-07-16,broker,可無火煮食、可報稅、有電梯、可入籍、社會住宅、免仲介費、有陽台、可開伙、租金補貼
ukmdxw42htpdcs4g,https://www.dd-room.com/object/ukmdxw42htpdcs4g,捷運後山埤4分【超值租案】免爬梯★乾溼分離★衛浴開窗,16499,32998,0,臺北市南港區玉成街,南港區,玉成街,25.0502987,121.5817854,1房1衛,1,0,1,0,0,2,獨立套房,apt,4,1,4,12,2026-07-16,broker,
vujxzvynugadarsx,https://www.dd-room.com/object/vujxzvynugadarsx,溝子口考試院  設備齊全 二樓免爬高 拎包入住,21999,44000,0,臺北市文山區木柵路一段,文山區,木柵路一段,24.9886465,121.5571187,4房1廳2衛1廚1陽台,4,1,2,1,1,4,整層,apt,20,2,4,12,2026-07-16,broker,可開伙、對外窗、可養其他寵物、可報稅、可入籍、可養狗、電費照台電、租金補貼、有陽台、可養貓
iaiqz70qt3cx9uqp,https://www.dd-room.com/object/iaiqz70qt3cx9uqp,優質地段🍧可入籍🍧無法租補特惠價,18000,36000,0,臺北市文山區木柵路一段154,文山區,木柵路一段,24.9977825,121.5741323,3房2廳1衛1廚1陽台,3,2,1,1,1,3,整層,apt,25,4,4,12,2026-07-16,broker,可養貓、可開伙、對外窗、氣密窗、有電梯、可報稅、有陽台、可養狗、可養其他寵物、可入籍、電費照台電、租金補貼
o0vi43detjdvqdf1,https://www.dd-room.com/object/o0vi43detjdvqdf1,捷運大安3分【豪邸3房2衛】報稅洽★新裝潢★含車位,128000,256000,11905,臺北市大安區大安路一段,大安區,大安路一段,25.0432575,121.5461836,3房2廳2衛2陽台,3,2,2,0,2,3,整層,elevator,41,3,12,12,2026-07-15,broker,可開伙、有電梯、有陽台
840tx4jzlxyeyzs9,https://www.dd-room.com/object/840tx4jzlxyeyzs9,近捷運世貿【超值租案】採光優★男性專屬★獨立陽台,10299,20598,0,臺北市信義區嘉興街,信義區,嘉興街,25.0313711,121.5581263,1房1衛,1,0,1,0,0,2,獨立套房,apt,4,3,4,12,2026-07-15,broker,
6nvciasndqund7lr,https://www.dd-room.com/object/6nvciasndqund7lr,天母運動公園【超值3房2廳】可補助★養寵物★垃圾代收,31999,63998,333,臺北市士林區天母東路,士林區,天母東路,25.118193,121.5367728,3房2廳1衛1陽台,3,2,1,0,1,3,整層,apt,28,-1,7,12,2026-07-15,broker,可開伙、垃圾代收、有陽台、租金補貼
ubrmei2whhemthsl,https://www.dd-room.com/object/ubrmei2whhemthsl,天母運動公園【優質3房2衛】雙陽台★附傢俱★皆有窗,41999,83998,0,臺北市士林區中山北路六段,士林區,中山北路六段,25.1032702,121.5250883,3房2廳2衛2陽台,3,2,2,0,2,3,整層,apt,35,2,5,12,2026-07-15,broker,可開伙、有陽台
pexkspvmtdbsgfqx,https://www.dd-room.com/object/pexkspvmtdbsgfqx,捷運南京三民4分【優質2房1廳】有陽台★附傢俱★皆有窗,45999,91998,0,臺北市松山區南京東路五段,松山區,南京東路五段,25.0511644,121.5693308,2房1廳1衛1陽台,2,1,1,0,1,2,整層,apt,22,2,6,12,2026-07-15,broker,可開伙、有陽台
49m2fkmisbmycxmq,https://www.dd-room.com/object/49m2fkmisbmycxmq,捷運南京三民5分【優質2房1廳】雙陽台★附傢俱★皆有窗,41499,82998,0,臺北市松山區南京東路五段,松山區,南京東路五段,25.0511644,121.5693308,2房1廳1衛2陽台,2,1,1,0,2,2,整層,apt,22,2,6,12,2026-07-15,broker,可開伙、有陽台
4ovtvazz6bdcumjr,https://www.dd-room.com/object/4ovtvazz6bdcumjr,木柵市場【超值租案】採光優★獨立衛浴★小資首選,8999,17998,0,臺北市文山區木新路二段,文山區,木新路二段,24.9850982,121.5704141,1房1衛,1,0,1,0,0,2,獨立套房,apt,6,4,5,12,2026-07-15,broker,
lvaupohqzcuawirs,https://www.dd-room.com/object/lvaupohqzcuawirs,捷運永春5分【超值2房1廳】可補助★有陽台★皆有窗,26999,53998,0,臺北市信義區松山路,信義區,松山路,25.0349996,121.5797394,2房1廳1衛1陽台,2,1,1,0,1,2,整層,elevator,14,13,15,12,2026-07-15,broker,可開伙、有電梯、有陽台、租金補貼
idj6aabq6wf5dft0,https://www.dd-room.com/object/idj6aabq6wf5dft0,近捷運松江南京【超值租案】洗衣機★精緻裝潢★免爬梯,15998,31996,0,臺北市中山區南京東路一段,中山區,南京東路一段,25.0521308,121.5233964,1房1衛,1,0,1,0,0,2,獨立套房,apt,4,1,1,12,2026-07-15,broker,
qzbxpfx0ebahgzpp,https://www.dd-room.com/object/qzbxpfx0ebahgzpp,黎和公園【超值租案】雙窗採光★獨立衛浴★低樓層,8499,16998,0,臺北市大安區和平東路三段,大安區,和平東路三段,25.0109102,121.5639627,1房1衛,1,0,1,0,0,2,獨立套房,apt,4,2,2,12,2026-07-15,broker,
mcq7fw8t2ouyoeoz,https://www.dd-room.com/object/mcq7fw8t2ouyoeoz,近捷運松江南京【優質租案】大空間★瓦斯爐★獨洗衣機,19899,39798,500,臺北市中山區新生北路,中山區,新生北路,25.0565064,121.5281099,1房1衛1廚,1,0,1,1,0,2,獨立套房,apt,13,3,4,12,2026-07-15,broker,可開伙
ip6xj0wfhctsdj4w,https://www.dd-room.com/object/ip6xj0wfhctsdj4w,近捷運大橋頭【優質租案】可補助★雙面採光★獨立衛浴,16999,33998,0,臺北市大同區涼州街,大同區,涼州街,25.0605815,121.510336,1房1衛,1,0,1,0,0,2,獨立套房,apt,4,4,4,12,2026-07-15,broker,租金補貼
hnmul5m7wwzwjzpq,https://www.dd-room.com/object/hnmul5m7wwzwjzpq,劍潭捷運文昌套房,11000,22000,0,臺北市士林區中山北路五段,士林區,中山北路五段,25.1017715,121.5260559,1房1衛,1,0,1,0,0,2,分租套房,house,5,2,2,12,2026-07-15,broker,可無火煮食、對外窗、保全設施、電費照台電
cavfippngbmnhrda,https://www.dd-room.com/object/cavfippngbmnhrda,捷運南京復興5分【優質大空間】租補★採光佳★貓可洽,13199,26398,0,臺北市中山區遼寧街,中山區,遼寧街,25.0485439,121.5421529,1房1衛,1,0,1,0,0,2,獨立套房,apt,6,3,4,12,2026-07-15,broker,租金補貼
7dabgh8xe6uchgyi,https://www.dd-room.com/object/7dabgh8xe6uchgyi,師大分部【超值租案】大面採光★獨洗衣機★獨立陽台,9999,19998,0,臺北市文山區羅斯福路五段,文山區,羅斯福路五段,25.0038756,121.5391233,1房1衛,1,0,1,0,0,2,獨立套房,apt,7,4,5,12,2026-07-15,broker,
mphdcpgvrxvomva3,https://www.dd-room.com/object/mphdcpgvrxvomva3,捷運松山5分【超值租案】可補助★可開伙★獨立衛浴,9499,18998,0,臺北市南港區八德路四段,南港區,八德路四段,25.0488403,121.564381,1房1衛,1,0,1,0,0,2,獨立套房,apt,4,5,5,12,2026-07-15,broker,可開伙、租金補貼
iygdjtmrdla3grey,https://www.dd-room.com/object/iygdjtmrdla3grey,近捷運新北投【優質租案】可寵物★入籍洽★垃圾代收,19000,38000,2350,臺北市北投區光明路,北投區,光明路,25.1361231,121.5054011,1房1衛,1,0,1,0,0,2,獨立套房,elevator,10,13,13,12,2026-07-15,broker,可開伙、有電梯、垃圾代收、可入籍
siaouqrzinwtseg5,https://www.dd-room.com/object/siaouqrzinwtseg5,424F【學生首選】近台大、師大、捷運站｜可租補入籍,14800,29600,0,臺北市大安區浦城街4巷24號,大安區,浦城街,25.0237688,121.5268477,1房1衛,1,0,1,0,0,1,雅房,apt,7,3,4,99,2026-07-15,broker,可開伙、可無火煮食、有飲水機、對外窗、垃圾代收、定期清潔、電費照台電、水費照台水、可報稅、共生公寓、有陽台、可入籍、租金補貼
wbebhf4slqvghizg,https://www.dd-room.com/object/wbebhf4slqvghizg,💓萬華小資族套房/台電/可養貓🐱可拎包入住,9999,19998,0,臺北市萬華區長泰街,萬華區,長泰街,25.0228656,121.4998912,1房1衛,1,0,1,0,0,2,獨立套房,apt,6,4,3,12,2026-07-15,broker,可無火煮食、可養貓、對外窗、可養其他寵物
6qahhg3yzv58yw6b,https://www.dd-room.com/object/6qahhg3yzv58yw6b,💓忠孝新生捷運/善導寺捷運/可租補/採光/可養貓/北科大,10000,20000,0,臺北市中正區忠孝東路二段,中正區,忠孝東路二段,25.0425436,121.531746,1房,1,0,0,0,0,1,雅房,apt,6,2,5,12,2026-07-15,broker,可無火煮食、可養貓、租金補貼、可報稅、可入籍、對外窗
oxdlbs3h76hf0ew8,https://www.dd-room.com/object/oxdlbs3h76hf0ew8,💓大橋頭捷運採光套房/可養貓🐱獨立洗衣曬衣/短租可談,13999,27998,500,臺北市大同區保安街,大同區,保安街,25.059116,121.5125116,1房1衛,1,0,1,0,0,2,獨立套房,apt,8,3,2,12,2026-07-15,broker,可無火煮食、可養貓、對外窗
wmdsclybyxfshwxz,https://www.dd-room.com/object/wmdsclybyxfshwxz,💓忠孝新生捷運/善導寺/可養貓/可租補/華山文創,7500,15000,0,臺北市中正區忠孝東路二段,中正區,忠孝東路二段,25.0425436,121.531746,1房,1,0,0,0,0,1,雅房,apt,3,2,5,12,2026-07-15,broker,可無火煮食、可養貓、租金補貼、可報稅、可入籍
t9aagpgnr8vbq8n7,https://www.dd-room.com/object/t9aagpgnr8vbq8n7,👍南京三民MRT｜可租補公證租約｜高樓101景觀泳池飯店,34000,68000,2174,臺北市松山區南京東路五段,松山區,南京東路五段,25.0511644,121.5693308,1房1廳1衛1廚1陽台,1,1,1,1,1,1,整層,elevator,16,18,18,12,2026-07-15,broker,有電梯、水泥隔間、可無火煮食、對外窗、垃圾代收、包裹代收、電費照台電、水費照台水、可報稅、有陽台、可入籍、租金補貼
wjiaigyvsbe0nov0,https://www.dd-room.com/object/wjiaigyvsbe0nov0,D83A大雅房｜高CP值雅房｜租補可申請｜生活機佳,14800,29600,0,臺北市大同區哈密街83巷3號,大同區,哈密街,25.0740593,121.519404,1房1衛,1,0,1,0,0,1,雅房,apt,5,4,4,99,2026-07-15,broker,可開伙、可無火煮食、有飲水機、對外窗、氣密窗、垃圾代收、定期清潔、共生公寓、可報稅、電費照台電、租金補貼、可入籍、有陽台
clmcds7ko5tptrkt,https://www.dd-room.com/object/clmcds7ko5tptrkt,💓台北車站捷運/西門/可養貓咪/可租補/可報稅/陽台套房,15000,30000,0,臺北市中正區開封街一段,中正區,開封街一段,25.0459566,121.5104087,1房1衛1陽台,1,0,1,0,1,2,獨立套房,apt,7,2,3,12,2026-07-15,broker,可無火煮食、可養貓、租金補貼、可報稅、有陽台、可入籍、對外窗、可養其他寵物
yf6we0ryndqyzzwz,https://www.dd-room.com/object/yf6we0ryndqyzzwz,💓中山國小捷運/樓中樓🏡可養貓🐱台電/短租可談,27500,55000,0,臺北市中山區新生北路二段,中山區,新生北路二段,25.0297486,121.5327247,1房1廳1衛,1,1,1,0,0,1,整層,elevator,11.7,8,12,12,2026-07-15,broker,可無火煮食、可養貓、有電梯、對外窗、電費照台電、水費照台水、垃圾代收
hwwfhlvilhkclxqz,https://www.dd-room.com/object/hwwfhlvilhkclxqz,565C💻南軟工程師首選｜步行上班｜優質套房｜可租補✨,16800,33600,0,臺北市南港區三重路5號,南港區,三重路,25.0614371,121.6138333,1房1衛,1,0,1,0,0,2,分租套房,apt,6,5,5,99,2026-07-15,broker,可開伙、可無火煮食、有飲水機、定期清潔、垃圾代收、電費照台電、水費照台水、可報稅、可入籍、租金補貼
fhzjonfzdei5s0w4,https://www.dd-room.com/object/fhzjonfzdei5s0w4,55A⭐遠企商圈・敦南林蔭大道旁｜獨洗獨陽台套房｜雙租補,22800,45600,800,臺北市大安區敦化南路二段55巷8號,大安區,敦化南路二段,25.0206622,121.5483922,1房1衛1陽台,1,0,1,0,1,2,分租套房,elevator,9,3,7,99,2026-07-15,broker,可開伙、可無火煮食、有飲水機、對外窗、有電梯、水泥隔間、定期清潔、包裹代收、垃圾代收、保全設施、電費照台電、水費照台水、可報稅、共生公寓、有陽台、可入籍、租金補貼
zqi1eeystkraiuzg,https://www.dd-room.com/object/zqi1eeystkraiuzg,前房客用來辦公聯絡會面，住他處,12000,24000,0,臺北市中正區水源路33巷10號,中正區,水源路,25.0240425,121.5147413,2房1廳1衛1廚2陽台,2,1,1,1,2,2,整層,apt,14,3,5,12,2026-07-15,individual,可養貓、可養狗、可開伙、免仲介費、電費照台電、水費照台水、有陽台
cqumwg0pfrih0iic,https://www.dd-room.com/object/cqumwg0pfrih0iic,💓台北車站捷運/補習街/可養貓/代收垃圾/短租可談,8000,16000,0,臺北市中正區南陽街,中正區,南陽街,25.0444464,121.5161033,1房,1,0,0,0,0,1,雅房,apt,5,5,4,12,2026-07-15,broker,可無火煮食、可養貓、垃圾代收
7igdkscjmi4fg03w,https://www.dd-room.com/object/7igdkscjmi4fg03w,💓新北投/採光套房/可租補/可報稅/全新床墊/可養貓,9000,18000,0,臺北市北投區中和街,北投區,中和街,25.1405111,121.5002439,,0,0,0,0,0,2,獨立套房,apt,4,5,5,12,2026-07-15,broker,可無火煮食、可養貓、租金補貼、可報稅、可入籍、可養狗、對外窗、可養其他寵物
mgthsfnaare24ft4,https://www.dd-room.com/object/mgthsfnaare24ft4,青年公園【超值1房1廳】可開伙★有陽台★獨洗衣機,14999,29998,0,臺北市萬華區青年路,萬華區,青年路,25.0250272,121.5034777,1房1廳1衛1陽台,1,1,1,0,1,1,整層,apt,8,4,5,12,2026-07-15,broker,可開伙、有陽台
tqkslgkw4tzplykg,https://www.dd-room.com/object/tqkslgkw4tzplykg,💓台北車站捷運/西門捷運套房/可租補/可養貓咪,12000,24000,0,臺北市中正區開封街一段,中正區,開封街一段,25.0459566,121.5104087,1房1衛,1,0,1,0,0,2,獨立套房,apt,6.5,3,3,12,2026-07-15,broker,可無火煮食、可養貓、租金補貼、可報稅、可入籍、對外窗
vrw4jbdwoxrej8bu,https://www.dd-room.com/object/vrw4jbdwoxrej8bu,捷運麟光5分【優質3房2廳】可補助★低樓層★報稅入籍,41499,82998,0,臺北市大安區安居街,大安區,安居街,25.0185559,121.552177,3房2廳1衛2陽台,3,2,1,0,2,3,整層,apt,30,2,4,12,2026-07-15,broker,可開伙、有陽台、租金補貼、可入籍
cn4elirj5elnutwt,https://www.dd-room.com/object/cn4elirj5elnutwt,💓大橋頭捷運/可養貓/一樓/可租補/兩房無採光,23500,47000,0,臺北市大同區保安街,大同區,保安街,25.059116,121.5125116,2房1廳1衛1陽台,2,1,1,0,1,2,整層,apt,18,1,2,12,2026-07-15,broker,可無火煮食、可養貓、可報稅、可入籍、有陽台、對外窗
krvrpj849a1pqejv,https://www.dd-room.com/object/krvrpj849a1pqejv,💓中山捷運/松江南京捷運/電梯/可養貓/屋況需要整理,16500,33000,0,臺北市中山區南京東路一段,中山區,南京東路一段,25.0521308,121.5233964,1房1衛,1,0,1,0,0,2,獨立套房,elevator,6,7,7,12,2026-07-15,broker,可無火煮食、可養貓、可報稅、有電梯、可入籍、對外窗、租金補貼
3v32sbooqowkkvuj,https://www.dd-room.com/object/3v32sbooqowkkvuj,捷運台電大樓1分【優質電梯】雙面採光★獨洗衣機★獨立衛浴,15499,30998,500,臺北市大安區師大路,大安區,師大路,25.0218269,121.528185,1房1衛,1,0,1,0,0,2,獨立套房,elevator,4,5,7,12,2026-07-15,broker,
m4sjrhgxxvyyelxn,https://www.dd-room.com/object/m4sjrhgxxvyyelxn,內湖分租套房,9800,19600,0,臺北市內湖區金龍路,內湖區,金龍路,25.087531,121.5875696,1房1衛,1,0,1,0,0,2,分租套房,apt,4,5,6,12,2026-07-14,agent,對外窗、水泥隔間、免仲介費、租金補貼
aoh6mr0iccmtyj6u,https://www.dd-room.com/object/aoh6mr0iccmtyj6u,北投捷運站●景觀三房附車位,62000,124000,4427,臺北市北投區光明路,北投區,光明路,25.1361231,121.5054011,3房2廳2衛1廚1陽台,3,2,2,1,1,3,整層,elevator,46.2,19,29,12,2026-07-14,broker,可開伙、水泥隔間、有電梯、氣密窗、對外窗、垃圾代收、包裹代收、有陽台、水費照台水、電費照台電
gxkrnciylfmyfk7i,https://www.dd-room.com/object/gxkrnciylfmyfk7i,近捷運台北小巨蛋【優質電梯】可補助★警衛管理★雙窗採光,17999,35998,1551,臺北市松山區八德路三段,松山區,八德路三段,25.0480249,121.5554986,1房1衛1陽台,1,0,1,0,1,2,獨立套房,elevator,17,8,12,12,2026-07-14,broker,可開伙、有電梯、有陽台、租金補貼
9gdsozozmloe9wk8,https://www.dd-room.com/object/9gdsozozmloe9wk8,捷運台電大樓3分【超值租案】租屋補助★師大首選★飲水機,11500,23000,0,臺北市中正區羅斯福路三段,中正區,羅斯福路三段,25.0210343,121.5293258,1房1衛,1,0,1,0,0,2,獨立套房,apt,3,5,5,12,2026-07-14,broker,租金補貼
pujn3scgvdgkkryh,https://www.dd-room.com/object/pujn3scgvdgkkryh,士林區.芝山站.可寵.1F獨立陽台.舒適設計感1+1房1廳1衛1F,32888,65776,0,臺北市士林區至誠路二段,士林區,至誠路二段,25.1014323,121.5278885,2房1廳1衛1廚1陽台,2,1,1,1,1,2,整層,apt,20,1,2,12,2026-07-14,escrow,氣密窗、對外窗、水泥隔間、可開伙、可養貓、可養狗、可養其他寵物、有陽台、租金補貼
ol99ogdrijtwmjjl,https://www.dd-room.com/object/ol99ogdrijtwmjjl,大安區.雙捷運(麟光.六張犁).溫馨設計感單人套房502,13888,27776,0,臺北市大安區樂業街159巷11號5樓,大安區,樂業街,25.0209875,121.5519036,1房1廳1衛,1,1,1,0,0,2,獨立套房,apt,6,5,5,12,2026-07-14,escrow,水泥隔間、氣密窗、對外窗
cxusoldzcbyex6ly,https://www.dd-room.com/object/cxusoldzcbyex6ly,中山區.行天宮/中山國中站.雙捷運.大露台.明亮設計感一房一廳9F,25888,51776,0,臺北市中山區民生東路三段,中山區,民生東路三段,25.0579063,121.5406308,1房1廳1衛1陽台,1,1,1,0,1,1,雅房,elevator,8,9,9,12,2026-07-14,escrow,對外窗、水泥隔間、租金補貼、有電梯
yqxbi01xgphbbo1h,https://www.dd-room.com/object/yqxbi01xgphbbo1h,近捷運古亭【挑高1房1廳】可補助★飯店管理★獨洗陽台,33500,67000,2224,臺北市大安區杭州南路二段,大安區,杭州南路二段,25.0309225,121.5222968,1房1廳1衛1陽台,1,1,1,0,1,1,整層,elevator,10,1,8,12,2026-07-14,broker,可開伙、有電梯、有陽台、租金補貼
1hq4qunnsalsm0oq,https://www.dd-room.com/object/1hq4qunnsalsm0oq,美麗華X西湖捷運站  獨立庭院 1房1廳,34000,64000,1300,臺北市內湖區內湖路一段,內湖區,內湖路一段,25.0799008,121.575434,1房1廳1衛1廚1陽台,1,1,1,1,1,1,整層,elevator,13,1,5,12,2026-07-14,individual,可開伙、有電梯、對外窗、垃圾代收、包裹代收、免仲介費、租金補貼、可入籍、有陽台、可報稅、水費照台水、電費照台電
kgawegave2o0q2hk,https://www.dd-room.com/object/kgawegave2o0q2hk,捷運忠孝復興5分【優質租案】有電梯★獨洗衣機★大面採光,23999,47998,0,臺北市大安區忠孝東路三段,大安區,忠孝東路三段,25.0417942,121.537076,1房1衛,1,0,1,0,0,2,獨立套房,elevator,6,5,7,12,2026-07-14,broker,有電梯
ouknidt9jwfkaew8,https://www.dd-room.com/object/ouknidt9jwfkaew8,捷運忠孝復興5分【優質租案】有電梯★垃圾代收★獨立衛浴,17999,35998,0,臺北市大安區忠孝東路三段,大安區,忠孝東路三段,25.0417942,121.537076,1房1衛,1,0,1,0,0,2,獨立套房,elevator,2,5,7,12,2026-07-14,broker,有電梯、垃圾代收
ananjmwlsiybbi9k,https://www.dd-room.com/object/ananjmwlsiybbi9k,捷運中山國中站2分【超值租案】可補助★洗脫烘★採光佳,15699,31398,0,臺北市中山區錦州街,中山區,錦州街,25.0602546,121.5271948,1房1衛,1,0,1,0,0,2,獨立套房,apt,4,2,5,12,2026-07-14,broker,租金補貼
1jozgg6qvatxymrd,https://www.dd-room.com/object/1jozgg6qvatxymrd,捷運昆陽5分【超值租案】低樓層★共用廚房★小資首選,10000,20000,0,臺北市南港區昆陽街,南港區,昆陽街,25.0514814,121.5936232,1房1衛,1,0,1,0,0,2,獨立套房,house,3,2,2,12,2026-07-14,broker,
ilfxbu2kpttlsgjg,https://www.dd-room.com/object/ilfxbu2kpttlsgjg,捷運昆陽5分【超值租案】免爬梯★共用廚房★小資首選,9500,19000,0,臺北市南港區昆陽街,南港區,昆陽街,25.0514814,121.5936232,1房1衛,1,0,1,0,0,2,獨立套房,house,2,1,2,12,2026-07-14,broker,
kzjrw5npmkxxcopp,https://www.dd-room.com/object/kzjrw5npmkxxcopp,捷運昆陽5分【超值租案】免爬梯★共用廚房★精緻裝潢,9499,18998,0,臺北市南港區昆陽街,南港區,昆陽街,25.0514814,121.5936232,1房,1,0,0,0,0,1,整層,house,2,1,2,12,2026-07-14,broker,
ifbfqxphsdqyozad,https://www.dd-room.com/object/ifbfqxphsdqyozad,★保安街★寧夏夜市★大橋頭捷運★可貓★收垃圾,14000,0,0,臺北市大同區保安街,大同區,保安街,25.059116,121.5125116,1房1廳1衛,1,1,1,0,0,2,分租套房,apt,7,3,2,3,2026-07-14,broker,可養貓、對外窗、垃圾代收、電費照台電
edzx4opcxipeurae,https://www.dd-room.com/object/edzx4opcxipeurae,兆基社會住宅🏠友善屋源🧡南港.研究院.全新裝潢.三房.可,36000,72000,0,臺北市南港區研究院路二段,南港區,研究院路二段,25.0393798,121.6174071,3房2廳2衛1陽台,3,2,2,0,1,3,整層,apt,21.7,1,3,12,2026-07-14,broker,可無火煮食、可養貓、可報稅、可入籍、社會住宅、免仲介費、有陽台、可開伙、租金補貼
mo5pp8iuttexqlzk,https://www.dd-room.com/object/mo5pp8iuttexqlzk,兆基社會住宅🏠友善屋源🧡中山國小站.低樓層.兩房.可租補,30000,60000,0,臺北市中山區林森北路,中山區,林森北路,25.0485295,121.5244036,2房2廳1衛1陽台,2,2,1,0,1,2,整層,apt,24.1,2,5,12,2026-07-14,broker,可無火煮食、可報稅、可入籍、社會住宅、免仲介費、有陽台、可開伙、租金補貼
82drmm9vlkkatdcl,https://www.dd-room.com/object/82drmm9vlkkatdcl,★內湖路★美麗華★電梯房★陽台★可貓★收垃圾★,24000,0,0,臺北市內湖區內湖路一段,內湖區,內湖路一段,25.0799008,121.575434,1房1衛1陽台,1,0,1,0,1,2,分租套房,elevator,10,3,5,12,2026-07-14,broker,可養貓、可養狗、可養其他寵物、對外窗、有電梯、包裹代收、定期清潔、垃圾代收、租金補貼
pvumlcjwwgmm6ln3,https://www.dd-room.com/object/pvumlcjwwgmm6ln3,兆基社會住宅🏠友善屋源❤️市政府捷運站/有電梯/陽台,21000,42000,500,臺北市信義區基隆路一段,信義區,基隆路一段,25.0486217,121.5687628,1房1衛1陽台,1,0,1,0,1,2,獨立套房,elevator,7.5,3,5,12,2026-07-14,broker,可無火煮食、可報稅、有電梯、有陽台、可入籍、社會住宅、免仲介費、可開伙、租金補貼
z0loh035ecokxaf9,https://www.dd-room.com/object/z0loh035ecokxaf9,★四維路★仁愛醫院★大安捷運★租補★可貓,24500,0,0,臺北市大安區四維路,大安區,四維路,25.0353359,121.5481086,1房1衛,1,0,1,0,0,2,分租套房,apt,7,5,5,12,2026-07-14,broker,可養貓、對外窗、垃圾代收、租金補貼
tuv29npzi1idmbzj,https://www.dd-room.com/object/tuv29npzi1idmbzj,兆基社會住宅🏠友善屋源🧡泉隱村優質出租｜舒適寧靜溫泉房,20000,40000,2701,臺北市北投區新民路,北投區,新民路,25.1407075,121.5121604,1房1衛1陽台,1,0,1,0,1,1,整層,elevator,12.7,3,5,12,2026-07-14,broker,有電梯、可無火煮食、免仲介費、社會住宅、租金補貼、可報稅、可入籍、可開伙
0kdztkdbkbmikae8,https://www.dd-room.com/object/0kdztkdbkbmikae8,兆基社會住宅🏠友善屋源🧡西門町商圈🚇稀有一樓🏠可租補,29800,59600,0,臺北市萬華區雅江街,萬華區,雅江街,25.0439843,121.5016185,2房2廳1衛,2,2,1,0,0,2,整層,apt,24.4,1,4,12,2026-07-14,broker,可無火煮食、免仲介費、社會住宅、租金補貼、可報稅、可入籍、可開伙
hyyi6e5p88laetrp,https://www.dd-room.com/object/hyyi6e5p88laetrp,★華街街★京站旁★台北車站★短租議★電梯★,10500,0,0,臺北市大同區華陰街,大同區,華陰街,25.0497801,121.5172886,1房1衛,1,0,1,0,0,2,分租套房,apt,3,6,8,1,2026-07-14,broker,有電梯、對外窗
1nnbvxoqrvxuqbdt,https://www.dd-room.com/object/1nnbvxoqrvxuqbdt,中正區.捷運公館站.可貓狗.台灣大學.獨立陽台.舒適溫馨感三房二廳3F,41000,82000,0,臺北市中正區汀州路三段,中正區,汀州路三段,25.0183584,121.5276343,3房2廳1衛1廚1陽台,3,2,1,1,1,3,整層,apt,25,3,4,12,2026-07-14,escrow,可養貓、可養狗、可開伙、對外窗、電費照台電、水費照台水、有陽台、水泥隔間
oqkwb1tgtqefdcp6,https://www.dd-room.com/object/oqkwb1tgtqefdcp6,捷運台電大樓1分【超值電梯】養寵洽★垃圾代收★獨立陽台,15500,31000,500,臺北市大安區師大路,大安區,師大路,25.0218269,121.528185,1房1衛1陽台,1,0,1,0,1,2,獨立套房,elevator,4,5,7,12,2026-07-14,broker,可開伙、有電梯、垃圾代收、有陽台
i39dfjzk4ax3idxk,https://www.dd-room.com/object/i39dfjzk4ax3idxk,捷運士林站【超值租案】採光優★女性首選★獨立衛浴,8499,16998,0,臺北市士林區文林路,士林區,文林路,25.1034787,121.5194153,1房1衛,1,0,1,0,0,2,獨立套房,apt,4,4,4,12,2026-07-13,broker,
dmafhbaetc13esmo,https://www.dd-room.com/object/dmafhbaetc13esmo,近捷運士林【超值租案】可補助★入籍★採光優,12999,25998,0,臺北市士林區後街,士林區,後街,25.0981428,121.5248768,1房1衛,1,0,1,0,0,2,獨立套房,apt,4,2,4,12,2026-07-13,broker,租金補貼、可入籍
fl26pfe8dxucbcgo,https://www.dd-room.com/object/fl26pfe8dxucbcgo,捷運唭哩岸【優質3房2衛】可補助★有陽台★皆有窗,31999,63998,0,臺北市北投區尊賢街,北投區,尊賢街,25.1158344,121.5078101,3房2廳2衛2陽台,3,2,2,0,2,3,整層,apt,27,4,5,12,2026-07-13,broker,可開伙、有陽台、租金補貼
ngg1vkmhjc77jfr9,https://www.dd-room.com/object/ngg1vkmhjc77jfr9,靜心中學【超值3房2衛】租屋補助★報稅入籍★房皆有窗,29999,59998,0,臺北市文山區興隆路二段,文山區,興隆路二段,24.99929,121.5472572,3房2廳2衛1陽台,3,2,2,0,1,3,整層,apt,20,5,5,12,2026-07-13,broker,可開伙、有陽台、租金補貼、可入籍
yh1lhsyfwzhqebjl,https://www.dd-room.com/object/yh1lhsyfwzhqebjl,捷運永春2分【優質租案】洗衣機★有陽台★採光優,18999,37998,0,臺北市信義區虎林街,信義區,虎林街,25.0371893,121.5772788,1房1衛1陽台,1,0,1,0,1,2,獨立套房,apt,5,5,5,12,2026-07-13,broker,可開伙、有陽台
6hhlbenbmzegwpgr,https://www.dd-room.com/object/6hhlbenbmzegwpgr,近公車站牌0986788231,12000,24000,0,臺北市松山區新中街6巷20號,松山區,新中街,25.0607645,121.5603214,,0,0,0,0,0,2,分租套房,apt,8,2,4,12,2026-07-13,individual,對外窗、水泥隔間、電費照台電、社會住宅
trdg1achd5wumpgp,https://www.dd-room.com/object/trdg1achd5wumpgp,近捷運南港站【超值租案】雙面採光★獨洗衣機★獨立陽台,14999,29998,0,臺北市南港區重陽路,南港區,重陽路,25.0569437,121.5998567,1房1衛,1,0,1,0,0,2,獨立套房,apt,18,6,6,12,2026-07-13,broker,
5vdcgciyb9chpqhf,https://www.dd-room.com/object/5vdcgciyb9chpqhf,捷運民權西路【挑高獨戶】可短租★新大樓★大空間,37000,74000,1600,臺北市中山區德惠街,中山區,德惠街,25.0668554,121.522377,1房1廳1衛1陽台,1,1,1,0,1,1,整層,elevator,17,12,15,12,2026-07-13,broker,可開伙、有電梯、有陽台
ox3end5grbj2w6iv,https://www.dd-room.com/object/ox3end5grbj2w6iv,近捷運劍南路【秒殺租案】大面採光★獨立衛浴★聯發科辦公室,11990,23980,0,臺北市內湖區內湖路一段,內湖區,內湖路一段,25.0799008,121.575434,1房1衛,1,0,1,0,0,2,獨立套房,apt,4,5,5,12,2026-07-13,broker,
pfxy4sj2vc4rcy43,https://www.dd-room.com/object/pfxy4sj2vc4rcy43,志成公園【超值租案】可補助★可養寵★採光優,10398,20796,0,臺北市士林區福林路,士林區,福林路,25.1001368,121.5356546,1房1衛,1,0,1,0,0,2,獨立套房,apt,4,4,4,12,2026-07-13,broker,租金補貼
dvynl1pkt3kk3t49,https://www.dd-room.com/object/dvynl1pkt3kk3t49,近捷運世貿站【優質租案】垃圾代收★獨洗,15999,31998,250,臺北市信義區莊敬路,信義區,莊敬路,25.0339173,121.5612988,1房1衛,1,0,1,0,0,2,獨立套房,elevator,4,3,7,12,2026-07-13,broker,有電梯、垃圾代收
gyhjhkfgpjnpkerb,https://www.dd-room.com/object/gyhjhkfgpjnpkerb,捷運中山2分【優質租案】可補助★全新裝潢★南西商圈,23499,46998,0,臺北市大同區赤峰街,大同區,赤峰街,25.0552168,121.5196301,1房1衛1陽台,1,0,1,0,1,2,獨立套房,apt,4,4,5,12,2026-07-13,broker,有陽台、租金補貼
tps6urzfg8n3pxhj,https://www.dd-room.com/object/tps6urzfg8n3pxhj,捷運中山2分【優質租案】全新裝潢★衛浴有窗★南西商圈,22999,45998,0,臺北市大同區赤峰街,大同區,赤峰街,25.0552168,121.5196301,1房1衛,1,0,1,0,0,2,獨立套房,apt,4,5,5,12,2026-07-13,broker,
iedycrbasvpyoc3w,https://www.dd-room.com/object/iedycrbasvpyoc3w,葫蘆國小【超值租案】可補助★流理臺★獨洗衣機,14998,29996,0,臺北市士林區延平北路五段,士林區,延平北路五段,25.0811652,121.5105537,1房1衛,1,0,1,0,0,2,獨立套房,apt,8,3,3,12,2026-07-13,broker,可開伙、租金補貼
rewuf1618kyoqhbd,https://www.dd-room.com/object/rewuf1618kyoqhbd,捷運士林站2分【超值租案】可補助★免爬梯★貓可洽,11500,23000,0,臺北市士林區美德街,士林區,美德街,25.0961112,121.5249278,1房1衛,1,0,1,0,0,2,獨立套房,apt,3,1,4,12,2026-07-13,broker,租金補貼
adnwqd06pqvk8hsz,https://www.dd-room.com/object/adnwqd06pqvk8hsz,捷運中山1分【優質租案】有電梯★警衛管理★獨洗衣機,19999,39998,600,臺北市中山區南京西路,中山區,南京西路,25.0525017,121.5213531,1房1衛,1,0,1,0,0,2,獨立套房,elevator,5,13,13,12,2026-07-13,broker,有電梯
ilx2grbopneatb1f,https://www.dd-room.com/object/ilx2grbopneatb1f,可租補｜捷運忠孝敦化站｜採光大面窗套房｜機能強可拎包入住,14000,28000,0,臺北市大安區延吉街,大安區,延吉街,25.0335105,121.557167,1房1衛,1,0,1,0,0,2,分租套房,apt,3,3,4,12,2026-07-13,broker,對外窗、水泥隔間、租金補貼
p5rlr3g4uaspwdx1,https://www.dd-room.com/object/p5rlr3g4uaspwdx1,可租補｜台電大樓站｜師大優質套房｜一卡皮箱拎包入住,12500,25000,0,臺北市大安區泰順街,大安區,泰順街,25.0250271,121.5314639,1房1衛,1,0,1,0,0,2,分租套房,apt,3,2,4,12,2026-07-13,broker,有飲水機、租金補貼
ef9rnbklztmxjksx,https://www.dd-room.com/object/ef9rnbklztmxjksx,近捷運北門【優質電梯】補助入籍★含機車位★小廚房,27999,55998,800,臺北市大同區南京西路,大同區,南京西路,25.0537899,121.5156011,1房1衛1陽台,1,0,1,0,1,2,獨立套房,elevator,8,7,14,12,2026-07-13,broker,可開伙、有電梯、有陽台、租金補貼、可入籍
crycc8kg0tknrhuy,https://www.dd-room.com/object/crycc8kg0tknrhuy,芝山站/採光電梯雅房/代收垃圾/有管理員代收信件包裹/限女生,8000,17000,0,臺北市士林區中山北路五段,士林區,中山北路五段,25.1017715,121.5260559,1房,1,0,0,0,0,1,雅房,elevator,3,8,7,12,2026-07-13,broker,對外窗、垃圾代收、包裹代收、電費照台電
o1srcnzpfamrr6d6,https://www.dd-room.com/object/o1srcnzpfamrr6d6,近劍潭站｜4房2陽台｜可開伙｜家具家電齊全｜生活機能佳,38500,77000,0,臺北市士林區承德路四段,士林區,承德路四段,25.0902764,121.5173712,4房2廳2衛1廚2陽台,4,2,2,1,2,4,整層,apt,32.9,5,5,12,2026-07-13,broker,可開伙、對外窗、水泥隔間、電費照台電、水費照台水、有陽台
xujoncgntzfbdurh,https://www.dd-room.com/object/xujoncgntzfbdurh,近捷運市政府【豪邸2房1廳】警衛管理★有陽台★樓中樓,51999,103998,0,臺北市信義區基隆路一段,信義區,基隆路一段,25.0486217,121.5687628,2房1廳1衛1陽台,2,1,1,0,1,2,整層,elevator,14,10,13,12,2026-07-13,broker,可開伙、有電梯、有陽台
bppjdk6p8g0peh6o,https://www.dd-room.com/object/bppjdk6p8g0peh6o,天母幽靜景觀別墅,86000,172000,0,臺北市士林區德行東路,士林區,德行東路,25.1088269,121.5315571,4房3廳3衛1廚2陽台,4,3,3,1,2,4,整層,house,75,999,2,12,2026-07-13,broker,可開伙、水泥隔間、對外窗、電費照台電、水費照台水、有陽台
610248cff0e54845a4383e31,https://www.dd-room.com/object/610248cff0e54845a4383e31,天母大空間優質社區,170000,340000,9100,臺北市士林區天母北路,士林區,天母北路,25.1201281,121.526482,5房2廳4衛1廚4陽台,5,2,4,1,4,5,整層,elevator,96.5,11,11,12,2026-07-13,broker,可開伙、水泥隔間、有電梯、對外窗、垃圾代收、包裹代收、水費照台水、電費照台電、有陽台
c6fvy9lwrgcgawof,https://www.dd-room.com/object/c6fvy9lwrgcgawof,👍古亭東門MRT｜靜巷綠蔭｜日式新穎美屋含管理費,33000,66000,0,臺北市大安區杭州南路二段,大安區,杭州南路二段,25.0309225,121.5222968,1房1衛1廚1陽台,1,0,1,1,1,1,整層,elevator,11,4,8,12,2026-07-12,broker,可無火煮食、對外窗、有電梯、水泥隔間、垃圾代收、包裹代收、水費照台水、電費照台電、有陽台
1wb43qmlkgiwlbco,https://www.dd-room.com/object/1wb43qmlkgiwlbco,☀️松江南京站/24H管理近公園採光2房,42000,84000,6630,臺北市中山區松江路,中山區,松江路,25.0720372,121.5314822,2房1廳1衛1廚1陽台,2,1,1,1,1,2,整層,elevator,27,3,7,12,2026-07-12,broker,可無火煮食、對外窗、有電梯、水泥隔間、垃圾代收、包裹代收、電費照台電、水費照台水、有陽台
64w0xqqbwxvpifj4,https://www.dd-room.com/object/64w0xqqbwxvpifj4,美/日僑學校★三房2樓美寓,42000,84000,0,臺北市士林區中山北路六段,士林區,中山北路六段,25.1032702,121.5250883,3房2廳2衛1廚2陽台,3,2,2,1,2,3,整層,apt,33.6,2,5,12,2026-07-12,broker,可開伙、水泥隔間、對外窗、電費照台電、水費照台水、有陽台
tbxmrlsv8sunuf6m,https://www.dd-room.com/object/tbxmrlsv8sunuf6m,北投公園優質溫泉套房【可租屋補助】,22000,44000,1890,臺北市北投區光明路,北投區,光明路,25.1361231,121.5054011,1房1衛1陽台,1,0,1,0,1,2,獨立套房,elevator,11,6,12,12,2026-07-12,broker,可無火煮食、對外窗、有電梯、水泥隔間、垃圾代收、包裹代收、水費照台水、電費照台電、有陽台、租金補貼
6rxht4ac3e6t7byv,https://www.dd-room.com/object/6rxht4ac3e6t7byv,振興醫院◆多樓層庭院住家,135000,270000,12101,臺北市北投區明德路,北投區,明德路,25.1151274,121.5220539,5房2廳3衛1廚3陽台,5,2,3,1,3,5,整層,elevator,90.2,1,14,12,2026-07-12,broker,對外窗、可開伙、電費照台電、水費照台水、垃圾代收、包裹代收、水泥隔間、有陽台、可報稅、氣密窗
6dtnc2soomppnhgm,https://www.dd-room.com/object/6dtnc2soomppnhgm,社子商圈二樓分租套房-E,8500,17000,0,臺北市士林區延平北路五段,士林區,延平北路五段,25.0811652,121.5105537,1房1衛,1,0,1,0,0,2,分租套房,apt,4,2,4,12,2026-07-12,broker,水泥隔間
ozuabyyw39gnwpmq,https://www.dd-room.com/object/ozuabyyw39gnwpmq,社子商圈二樓分租套房-D,9500,19000,0,臺北市士林區延平北路五段,士林區,延平北路五段,25.0811652,121.5105537,,0,0,0,0,0,2,分租套房,apt,4,2,4,12,2026-07-12,broker,水泥隔間
8juhvbintx4pcmp3,https://www.dd-room.com/object/8juhvbintx4pcmp3,中山行天宮站近三線捷運可短租包水電網路,8000,0,0,臺北市中山區中原街,中山區,中原街,25.0637555,121.529034,4房1廳4衛1廚2陽台,4,1,4,1,2,8,雅房,apt,6,3,3,1,2026-07-12,agent,共生公寓、保全設施、有飲水機、可開伙、定期清潔、免仲介費、有陽台
1vqz7webhz5pdbuz,https://www.dd-room.com/object/1vqz7webhz5pdbuz,美式鄉村豪華雙人房,26000,26000,0,臺北市中正區博愛路,中正區,博愛路,25.037819,121.5110521,1房1衛,1,0,1,0,0,2,獨立套房,elevator,8,9,4,1,2026-07-12,individual,對外窗、有飲水機、有電梯、水泥隔間、定期清潔
3u6net11ywgv511p,https://www.dd-room.com/object/3u6net11ywgv511p,五星套房..近台北車站、西門町,26000,26000,0,臺北市中正區博愛路,中正區,博愛路,25.037819,121.5110521,1房1衛,1,0,1,0,0,2,獨立套房,elevator,8,6,9,1,2026-07-12,individual,對外窗、水泥隔間、有電梯、定期清潔
enmn5utudtg0c8a5,https://www.dd-room.com/object/enmn5utudtg0c8a5,南軟走路運動上班超方便--溫馨明亮兩大房,24800,49600,0,臺北市內湖區安康路,內湖區,安康路,25.0647734,121.6089867,2房1廳1衛1廚1陽台,2,1,1,1,1,2,整層,house,20,3,3,12,2026-07-12,individual,對外窗、可無火煮食、免仲介費
fknv0d18e69is7fb,https://www.dd-room.com/object/fknv0d18e69is7fb,近捷運港墘【超值租案】新裝潢★垃圾代收★變頻冷氣,13799,27598,0,臺北市內湖區江南街,內湖區,江南街,25.0771479,121.5772438,1房1衛,1,0,1,0,0,2,獨立套房,apt,3,5,5,12,2026-07-12,broker,可開伙、垃圾代收
ri5bvzgiyi3oresz,https://www.dd-room.com/object/ri5bvzgiyi3oresz,忠順3房2衛美寓,30000,60000,0,臺北市文山區忠順街二段90巷x號4樓,文山區,忠順街二段,24.9841188,121.5589819,3房2廳2衛1廚1陽台,3,2,2,1,1,3,整層,apt,31,4,5,12,2026-07-12,individual,可開伙、對外窗、水泥隔間、電費照台電、水費照台水、有陽台、可入籍、租金補貼
ncwqu2jlhxm8mpjn,https://www.dd-room.com/object/ncwqu2jlhxm8mpjn,近捷運永春【超值租案】低樓層★近商圈★女性專屬,11000,22000,0,臺北市信義區永吉路,信義區,永吉路,25.0455822,121.5742053,1房1衛,1,0,1,0,0,2,獨立套房,apt,5,2,4,12,2026-07-12,broker,
nppy4hcchfzx36u5,https://www.dd-room.com/object/nppy4hcchfzx36u5,文教區住辦兩用,12000,24000,0,臺北市中正區水源路,中正區,水源路,25.0240425,121.5147413,2房1廳1衛1廚2陽台,2,1,1,1,2,2,獨立套房,apt,14,3,5,6,2026-07-11,individual,可養貓、可養狗、可開伙、電費照台電、水費照台水
dt8btixtzlqilmpd,https://www.dd-room.com/object/dt8btixtzlqilmpd,剩三間！朋友一起來《小巨蛋x忠孝敦化雙捷運/一卡皮箱入住》,11800,0,0,臺北市松山區八德路三段,松山區,八德路三段,25.0480249,121.5554986,1房1廳1衛1廚1陽台,1,1,1,1,1,1,整層,apt,30,4,5,3,2026-07-11,individual,可開伙、對外窗、電費照台電、水費照台水、共生公寓、定期清潔、水泥隔間、氣密窗、有陽台、免仲介費、可無火煮食、有飲水機、保全設施、智慧宅、高齡友善、可養其他寵物
uo5uigqddylk8wqe,https://www.dd-room.com/object/uo5uigqddylk8wqe,捷運後山埤【優質租案】可補助★有警衛★洗衣機,27999,55998,0,臺北市南港區忠孝東路六段,南港區,忠孝東路六段,25.0491863,121.5885828,1房1衛,1,0,1,0,0,2,獨立套房,apt,4,13,14,12,2026-07-11,broker,可開伙、租金補貼
pyvpxlw5tsete6de,https://www.dd-room.com/object/pyvpxlw5tsete6de,可租補 建中旁2樓 雅房7800元安靜,7800,7800,0,臺北市中正區泉州街,中正區,泉州街,25.0286498,121.5144435,4房2衛1陽台,4,0,2,0,1,1,雅房,apt,4.5,2,5,12,2026-07-11,individual,可無火煮食、對外窗、水泥隔間、保全設施、定期清潔、免仲介費、電費照台電、租金補貼
xkn2jz7iv6z0dhph,https://www.dd-room.com/object/xkn2jz7iv6z0dhph,捷運台電大樓1分【優質租案】補助洽★可養寵★獨立陽台,15999,31998,0,臺北市大安區師大路,大安區,師大路,25.0218269,121.528185,1房1衛,1,0,1,0,0,2,獨立套房,apt,3,4,4,12,2026-07-10,broker,可養貓、可養狗、可開伙、租金補貼
d7pr4mepgvx0oulh,https://www.dd-room.com/object/d7pr4mepgvx0oulh,捷運石牌站【超值租案】採光優★乾溼分離★陽明交大,11499,22998,0,臺北市北投區致遠一路二段,北投區,致遠一路二段,25.1123509,121.513458,1房1衛,1,0,1,0,0,2,獨立套房,apt,5,4,4,12,2026-07-10,broker,
b6vxcffe1gjursr1,https://www.dd-room.com/object/b6vxcffe1gjursr1,捷運明德3分【優質3房1廳】可補助★報稅入籍★有陽台,31499,62998,0,臺北市北投區明德路,北投區,明德路,25.1151274,121.5220539,3房1廳1衛1陽台,3,1,1,0,1,3,整層,apt,23,5,5,12,2026-07-10,broker,可開伙、有陽台、租金補貼、可入籍
jgpdtph2r7o8u2o7,https://www.dd-room.com/object/jgpdtph2r7o8u2o7,民生社區【優質租案】大空間★工作室★採光優,22999,45998,0,臺北市松山區新東街,松山區,新東街,25.0590866,121.5659347,1房1衛,1,0,1,0,0,2,獨立套房,apt,6,1,4,12,2026-07-10,broker,
vzj6420ycdr1rmue,https://www.dd-room.com/object/vzj6420ycdr1rmue,捷運市政府1分【秒殺租案】可補助★養貓咪★報稅,21499,42998,1500,臺北市信義區忠孝東路五段,信義區,忠孝東路五段,25.0411286,121.5785763,1房1衛,1,0,1,0,0,2,獨立套房,elevator,4,2,6,12,2026-07-10,broker,有電梯、租金補貼
pvwbovibr9ceiqc2,https://www.dd-room.com/object/pvwbovibr9ceiqc2,青年公園【超值2房1廳】警衛管理★有陽台★附傢俱,23000,46000,300,臺北市萬華區國興路,萬華區,國興路,25.0255942,121.5069475,2房1廳1衛1陽台,2,1,1,0,1,2,整層,elevator,16,4,12,12,2026-07-10,broker,可開伙、有電梯、有陽台
hasti9hfdzwlgkq3,https://www.dd-room.com/object/hasti9hfdzwlgkq3,捷運台電大樓3分【超值租案】女性專屬★獨立衛浴★小資首選,8699,17398,0,臺北市中正區羅斯福路三段,中正區,羅斯福路三段,25.0210343,121.5293258,1房1衛,1,0,1,0,0,2,獨立套房,apt,3,5,5,12,2026-07-10,broker,
sie3myfgoiycqfpo,https://www.dd-room.com/object/sie3myfgoiycqfpo,捷運台電大樓【超值租案】限女性★對外窗★獨立衛浴,7499,14998,0,臺北市中正區羅斯福路三段,中正區,羅斯福路三段,25.0210343,121.5293258,1房1衛,1,0,1,0,0,2,獨立套房,apt,3,5,5,12,2026-07-10,broker,
4lnzjxatfjlwv7kr,https://www.dd-room.com/object/4lnzjxatfjlwv7kr,青年公園【優質租案】洗衣機★有陽台★流理台,17999,35998,0,臺北市中正區汀州路一段,中正區,汀州路一段,25.0270475,121.5109434,1房1衛1陽台,1,0,1,0,1,2,獨立套房,apt,16,6,6,12,2026-07-10,broker,有陽台
ujoevo3awmohagrk,https://www.dd-room.com/object/ujoevo3awmohagrk,中山區松江南京站四平商圈靜巷雅房限男性,7800,15600,0,臺北市中山區伊通街,中山區,伊通街,25.0497272,121.5347623,1房,1,0,0,0,0,1,雅房,apt,4,5,4,12,2026-07-10,agent,對外窗、有飲水機、免仲介費
q7w3sanutvk8pdaf,https://www.dd-room.com/object/q7w3sanutvk8pdaf,中山區松江南京站靜巷通風雅房限男,9000,18000,0,臺北市中山區伊通街,中山區,伊通街,25.0497272,121.5347623,1房,1,0,0,0,0,1,雅房,apt,7,4,5,99,2026-07-10,agent,有飲水機、對外窗、免仲介費
nm7uyontx7c0hv1c,https://www.dd-room.com/object/nm7uyontx7c0hv1c,免仲介費優質套房釋出，松江南京站周邊靜巷四平商圈,12900,25800,0,臺北市中山區伊通街,中山區,伊通街,25.0497272,121.5347623,1房1衛,1,0,1,0,0,2,分租套房,apt,8,5,5,12,2026-07-10,agent,對外窗、免仲介費
7fvuolnqdtvmorj0,https://www.dd-room.com/object/7fvuolnqdtvmorj0,兆基社會住宅🏠友善屋源捷運葫洲站、寵物友善、可租補入籍免仲,26000,52000,0,臺北市內湖區康寧路三段,內湖區,康寧路三段,25.0688476,121.6121167,3房2廳2衛2陽台,3,2,2,0,2,3,整層,apt,26.6,5,5,12,2026-07-10,broker,可無火煮食、可養貓、租金補貼、可報稅、可入籍、社會住宅、免仲介費、有陽台、可開伙
uhckg7fwzsfgmlqe,https://www.dd-room.com/object/uhckg7fwzsfgmlqe,兆基社會住宅🏠友善屋源🧡可租補/有電梯有管理/生活機能佳,15000,30000,641,臺北市大同區南京西路,大同區,南京西路,25.0537899,121.5156011,1房1衛,1,0,1,0,0,2,獨立套房,elevator,6.5,11,14,12,2026-07-10,broker,可無火煮食、租金補貼、可報稅、可入籍、社會住宅、免仲介費、可開伙
xi40a1bkqgcvlv2k,https://www.dd-room.com/object/xi40a1bkqgcvlv2k,兆基社會住宅🏠友善屋源🧡可租補/免爬梯/獨立大套房,15000,30000,300,臺北市大同區延平北路一段,大同區,延平北路一段,25.0489595,121.5116395,1房1衛,1,0,1,0,0,2,獨立套房,elevator,9.4,9,9,12,2026-07-10,broker,可無火煮食、租金補貼、可報稅、可入籍、社會住宅、免仲介費、可開伙
ryevbqjxjpqwac6y,https://www.dd-room.com/object/ryevbqjxjpqwac6y,兆基社會住宅🏠友善屋源🧡小巨蛋/正一房一廳/可租補入籍,23000,46000,695,臺北市松山區南京東路五段,松山區,南京東路五段,25.0511644,121.5693308,1房1廳1衛,1,1,1,0,0,1,整層,elevator,13.5,8,11,12,2026-07-10,broker,可無火煮食、可報稅、有電梯、可入籍、社會住宅、免仲介費
iscljyoyo8y9oajt,https://www.dd-room.com/object/iscljyoyo8y9oajt,兆基社會住宅🏠友善屋源🧡景美站/正一房一廳/有管理/可養,30000,60000,1005,臺北市文山區景興路,文山區,景興路,24.9903893,121.5430591,,0,0,0,0,0,2,獨立套房,elevator,13.8,6,18,12,2026-07-10,broker,可無火煮食、可養貓、可報稅、有電梯、有陽台、可入籍、社會住宅、免仲介費
0rg7rlmb7gzkfnqp,https://www.dd-room.com/object/0rg7rlmb7gzkfnqp,兆基社會住宅🏠友善屋源🧡南港三樓🧡免仲🧡可租補入籍,28000,56000,0,臺北市南港區舊莊街一段,南港區,舊莊街一段,25.0371917,121.6238671,3房2廳1衛1陽台,3,2,1,0,1,3,整層,apt,23.6,3,4,12,2026-07-10,broker,可無火煮食、可報稅、可入籍、社會住宅、免仲介費、有陽台
r15p3qrf8wbzcy0c,https://www.dd-room.com/object/r15p3qrf8wbzcy0c,兆基社會住宅🏡友善屋源🧡師大商圈、可租補入籍免仲介費,16000,32000,100,臺北市大安區泰順街,大安區,泰順街,25.0250271,121.5314639,,0,0,0,0,0,2,獨立套房,apt,6,1,5,12,2026-07-10,broker,可無火煮食、可報稅、可入籍、社會住宅、免仲介費
a5xezuzftdcmgxdg,https://www.dd-room.com/object/a5xezuzftdcmgxdg,@@忠孝復興SOGO商圈旁*機能溫馨套房,18800,37600,500,臺北市大安區復興南路一段,大安區,復興南路一段,25.0433313,121.5438915,1房1廳1衛,1,1,1,0,0,2,獨立套房,elevator,8.5,5,12,12,2026-07-09,broker,對外窗、有電梯、水泥隔間
jypdhtclznhawex5,https://www.dd-room.com/object/jypdhtclznhawex5,@@天母石牌明德商圈旁*溫馨明亮美居,32888,65776,0,臺北市北投區榮華一路,北投區,榮華一路,25.1122094,121.5242598,1房1廳1衛,1,1,1,0,0,1,整層,elevator,16.7,2,5,12,2026-07-09,broker,對外窗、有電梯、水泥隔間
gaikxijyy4tmbnon,https://www.dd-room.com/object/gaikxijyy4tmbnon,近捷運南京三民站【超值租案】大空間★獨立衛浴★小資首選,9999,19998,0,臺北市松山區寶清街,松山區,寶清街,25.0530892,121.5677239,1房1衛,1,0,1,0,0,2,獨立套房,apt,8,-1,4,12,2026-07-09,broker,
glp4ugpmhxaaixsc,https://www.dd-room.com/object/glp4ugpmhxaaixsc,捷運萬隆3分【超值租案】可租補★乾溼分離★學生專屬,8999,17998,0,臺北市文山區羅斯福路六段,文山區,羅斯福路六段,24.9892635,121.5384731,1房1衛,1,0,1,0,0,2,獨立套房,apt,4,1,1,12,2026-07-09,broker,租金補貼
jim8b2hfybdehyfp,https://www.dd-room.com/object/jim8b2hfybdehyfp,捷運昆陽5分【超值租案】免爬梯★共用廚房,9499,18998,0,臺北市南港區昆陽街,南港區,昆陽街,25.0514814,121.5936232,1房1衛,1,0,1,0,0,1,整層,house,2,1,2,12,2026-07-09,broker,可開伙
vxf5y4sldnsif84c,https://www.dd-room.com/object/vxf5y4sldnsif84c,中山國中站，分租雅房,13500,27000,0,臺北市中山區民權東路三段,中山區,民權東路三段,25.0624217,121.5433341,1房2廳1衛1廚1陽台,1,2,1,1,1,1,雅房,elevator,3,6,7,12,2026-07-09,individual,可開伙、對外窗、垃圾代收、電費照台電、水費照台水、可報稅、可入籍、免仲介費、有陽台、有電梯、租金補貼
e69yqrpkf3q08qvc,https://www.dd-room.com/object/e69yqrpkf3q08qvc,捷運信義安和5分【優質租案】浴缸★寬敞★獨洗,17499,34998,0,臺北市大安區通化街,大安區,通化街,25.0287281,121.5538123,1房1衛,1,0,1,0,0,2,獨立套房,apt,5,2,4,12,2026-07-09,broker,
j1yvyne3iy7ztdw0,https://www.dd-room.com/object/j1yvyne3iy7ztdw0,可租補，方正亮麗，信義路六段近信義計畫區、象山捷運站,18000,36000,0,臺北市信義區信義路六段,信義區,信義路六段,25.0349379,121.5765026,1房1衛,1,0,1,0,0,2,分租套房,apt,6,4,4,12,2026-07-09,broker,對外窗、租金補貼、保全設施、水泥隔間
hyw5d68asjs6fr75,https://www.dd-room.com/object/hyw5d68asjs6fr75,薇閣國中小捷運獨棟電梯舒適大宅邸,49500,99000,4000,臺北市北投區溫泉路,北投區,溫泉路,25.135434,121.5066619,4房2廳2衛1廚2陽台,4,2,2,1,2,4,整層,elevator,38,3,7,12,2026-07-09,broker,可開伙、對外窗、電費照台電、水費照台水、社會住宅、可入籍、有電梯、水泥隔間、氣密窗、可報稅、有陽台
t1ufporv3rsdndh7,https://www.dd-room.com/object/t1ufporv3rsdndh7,捷運六張犁站【優質租案】租補洽★限女性★乾溼分離,19000,38000,0,臺北市大安區通化街,大安區,通化街,25.0287281,121.5538123,1房1衛,1,0,1,0,0,2,獨立套房,apt,4,5,6,12,2026-07-09,broker,租金補貼
6090d596f0e54853087151a0,https://www.dd-room.com/object/6090d596f0e54853087151a0,即將釋出.內湖區.捷運東湖站.免追垃圾.明亮大空間.舒適設計感套房503,18888,37776,0,臺北市內湖區康樂街,內湖區,康樂街,25.068761,121.618418,1房1廳1衛1廚,1,1,1,1,0,2,獨立套房,apt,8,5,5,12,2026-07-09,escrow,可無火煮食、對外窗、垃圾代收、水泥隔間、氣密窗
at2oa3ynflwqr65m,https://www.dd-room.com/object/at2oa3ynflwqr65m,台北市一樓稀有別墅花園10坪套房出租，近捷運及公車站 有停車位，請務必詳閱刊登說明內容後合意者請再洽詢。,14000,28000,500,臺北市文山區興隆路四段1巷,文山區,興隆路四段,24.9910393,121.5611727,1房1衛1陽台,1,0,1,0,1,2,分租套房,villa,10,1,3,99,2026-07-09,individual,氣密窗、對外窗、水泥隔間、保全設施、垃圾代收、免仲介費、有陽台
tqvnsim7118fvrvm,https://www.dd-room.com/object/tqvnsim7118fvrvm,兆基社會住宅🏠友善屋源🧡世貿站/北醫/可貓/可租補入籍,37000,74000,0,臺北市信義區吳興街,信義區,吳興街,25.0251064,121.5670694,3房2廳1衛2陽台,3,2,1,0,2,3,整層,apt,26,3,4,12,2026-07-09,broker,可無火煮食、可養貓、可報稅、可入籍、社會住宅、免仲介費、有陽台
wkewuatbbt2objau,https://www.dd-room.com/object/wkewuatbbt2objau,兆基社會住宅🏠友善屋源🧡西湖站🧡免仲🧡可租補入籍,33000,66000,0,臺北市內湖區內湖路一段,內湖區,內湖路一段,25.0799008,121.575434,3房2廳2衛2陽台,3,2,2,0,2,3,整層,apt,31.2,3,5,12,2026-07-09,broker,可無火煮食、可報稅、可入籍、社會住宅、免仲介費、有陽台
dzeplkp3vd5wcnyc,https://www.dd-room.com/object/dzeplkp3vd5wcnyc,兆基社會住宅🏠友善屋源🧡中山雙連/寧夏夜市/可租補入籍,38000,76000,1150,臺北市大同區寧夏路,大同區,寧夏路,25.0589585,121.5149356,3房2廳1衛,3,2,1,0,0,3,整層,elevator,18.6,3,7,12,2026-07-09,broker,可無火煮食、可報稅、有電梯、可入籍、社會住宅、免仲介費
n5jjqnegkxswtnsl,https://www.dd-room.com/object/n5jjqnegkxswtnsl,兆基社會住宅🏠友善屋源❤️虎林小豪宅/可租補入籍,31000,62000,0,臺北市信義區虎林街,信義區,虎林街,25.0371893,121.5772788,3房1廳1衛1陽台,3,1,1,0,1,3,整層,apt,22.6,4,4,12,2026-07-09,broker,可無火煮食、可報稅、可入籍、社會住宅、免仲介費、有陽台
uznq9g6ui5xppkcs,https://www.dd-room.com/object/uznq9g6ui5xppkcs,兆基社會住宅🏠友善屋源🧡可租補/免爬梯/大空間/格局方正,38000,76000,1200,臺北市大同區哈密街,大同區,哈密街,25.0740593,121.519404,3房2廳1衛2陽台,3,2,1,0,2,3,整層,elevator,33.9,6,7,12,2026-07-09,broker,可無火煮食、可報稅、有電梯、可入籍、社會住宅、免仲介費、有陽台
0aagdqhasvnrynhx,https://www.dd-room.com/object/0aagdqhasvnrynhx,兆基社會住宅🏠友善屋源🧡可租補/近北車/低價電梯套房台水,11000,22000,590,臺北市大同區延平北路一段,大同區,延平北路一段,25.0489595,121.5116395,,0,0,0,0,0,2,獨立套房,elevator,4.9,9,11,12,2026-07-09,broker,可無火煮食、可報稅、有電梯、可入籍、社會住宅、免仲介費
dsiw99pqliesy6yc,https://www.dd-room.com/object/dsiw99pqliesy6yc,捷運雙連【超值租案】警衛管理★採光優★洗衣機,15999,31998,0,臺北市中山區新生北路二段,中山區,新生北路二段,25.0297486,121.5327247,1房1衛,1,0,1,0,0,2,獨立套房,elevator,10,13,14,12,2026-07-08,broker,有電梯
loyvzl4yik5ablab,https://www.dd-room.com/object/loyvzl4yik5ablab,天溪綠地【超值租案】租屋補助★入籍報稅★附車位,15999,31998,0,臺北市北投區行義路,北投區,行義路,25.134257,121.5288328,1房1衛,1,0,1,0,0,2,獨立套房,apt,8,1,1,12,2026-07-08,broker,租金補貼、可入籍
coq7zk7gkubmqat3,https://www.dd-room.com/object/coq7zk7gkubmqat3,天母高島屋【景觀1房1衛】警衛管理★乾溼分離★女性專屬,17999,35998,2000,臺北市士林區忠誠路二段,士林區,忠誠路二段,25.1163267,121.5341003,1房1衛,1,0,1,0,0,2,獨立套房,elevator,13,14,14,12,2026-07-08,broker,有電梯
hqpbyclichkou0cf,https://www.dd-room.com/object/hqpbyclichkou0cf,近捷運明德【優質4房2廳】可補助★有廚房★獨洗衣機,44999,89998,0,臺北市北投區榮華一路,北投區,榮華一路,25.1122094,121.5242598,4房2廳2衛4陽台,4,2,2,0,4,4,整層,apt,33,5,5,12,2026-07-08,broker,可開伙、有陽台、租金補貼
xxzqszgomccyu6dc,https://www.dd-room.com/object/xxzqszgomccyu6dc,捷運南京三民3分【優質2房1廳】可寵★廚房★陽台,42000,84000,0,臺北市松山區南京東路五段,松山區,南京東路五段,25.0511644,121.5693308,3房2廳2衛2陽台,3,2,2,0,2,3,整層,apt,33,4,5,12,2026-07-08,broker,可養貓、可養狗、可開伙、有陽台
ksdnw5ylgggmavdq,https://www.dd-room.com/object/ksdnw5ylgggmavdq,#內湖區#近內科#徵2名室友#可租屋補助,10000,20000,0,臺北市內湖區江南街,內湖區,江南街,25.0771479,121.5772438,3房1廳1衛1廚1陽台,3,1,1,1,1,3,整層,apt,35,3,7,12,2026-07-08,agent,可開伙、對外窗、可無火煮食、水費照台水、電費照台電、免仲介費、有電梯、水泥隔間、租金補貼、有陽台
lmhqahk8pnwa5auq,https://www.dd-room.com/object/lmhqahk8pnwa5auq,近捷運中山國小【優質電梯】獨洗衣機★垃圾代收★警衛管理,33998,67996,2100,臺北市中山區農安街,中山區,農安街,25.0646817,121.5349909,1房1衛,1,0,1,0,0,2,獨立套房,elevator,13,11,14,12,2026-07-08,broker,可開伙、有電梯、垃圾代收
ap1y05nzaagz4wsd,https://www.dd-room.com/object/ap1y05nzaagz4wsd,捷運石牌5分【超值租案】大空間★大面採光★獨立衛浴,14999,29998,0,臺北市北投區義理街,北投區,義理街,25.1171809,121.5157262,1房1衛,1,0,1,0,0,2,獨立套房,apt,6,5,5,12,2026-07-08,broker,
08lh52jok11zh4uf,https://www.dd-room.com/object/08lh52jok11zh4uf,👍南港新興豪宅首次出租屋齡新全新裝潢4房,120000,240000,9994,臺北市南港區東新街,南港區,東新街,25.0476046,121.5854895,4房2廳2衛1廚1陽台,4,2,2,1,1,4,整層,elevator,62,6,16,12,2026-07-08,broker,可開伙、對外窗、有電梯、水泥隔間、垃圾代收、包裹代收、電費照台電、水費照台水、有陽台、可報稅
ri61zng8agku15uo,https://www.dd-room.com/object/ri61zng8agku15uo,近捷運辛亥站【超值1房1廳】大空間★多窗採光★獨立衛浴,9999,19998,0,臺北市文山區福興路,文山區,福興路,25.0070705,121.5493711,1房1衛,1,0,1,0,0,2,獨立套房,apt,6,5,5,12,2026-07-07,broker,
ya8dgr0x4bfiynlq,https://www.dd-room.com/object/ya8dgr0x4bfiynlq,@@中山國小捷運商圈旁*精緻明亮機能美邸,110000,220000,0,臺北市中山區德惠街,中山區,德惠街,25.0668554,121.522377,3房2廳2衛2陽台,3,2,2,0,2,3,整層,elevator,58.4,3,13,12,2026-07-07,broker,對外窗、有電梯、水泥隔間
5o74lhjq5tw1r0bu,https://www.dd-room.com/object/5o74lhjq5tw1r0bu,西門捷運電梯溫馨套房.可短租.可喵,26000,0,0,臺北市萬華區漢中街,萬華區,漢中街,25.0438693,121.5073407,1房1廳1衛,1,1,1,0,0,2,分租套房,elevator,15,4,10,1,2026-07-07,individual,可養貓、可養其他寵物、可無火煮食、有飲水機、對外窗、有電梯、水泥隔間、保全設施、垃圾代收、免仲介費、高齡友善
snlh6bl8qaqfxtat,https://www.dd-room.com/object/snlh6bl8qaqfxtat,飯店式設計溫馨套房可短租可租補,23500,0,0,臺北市中山區中山北路一段,中山區,中山北路一段,25.0627663,121.5227366,1房1廳1衛,1,1,1,0,0,2,分租套房,elevator,11,4,7,1,2026-07-07,individual,可養其他寵物、可無火煮食、對外窗、水泥隔間、有電梯、保全設施、垃圾代收、免仲介費、可報稅、可入籍、租金補貼
b3lzoasa8oickwdo,https://www.dd-room.com/object/b3lzoasa8oickwdo,西門捷運商圈電梯溫馨套房可短租,23000,0,0,臺北市萬華區漢中街,萬華區,漢中街,25.0438693,121.5073407,1房1廳1衛1陽台,1,1,1,0,1,2,分租套房,elevator,10,4,10,1,2026-07-07,individual,可養其他寵物、可無火煮食、有飲水機、對外窗、有電梯、水泥隔間、保全設施、垃圾代收、免仲介費、有陽台
sari3yzra5bcv1sx,https://www.dd-room.com/object/sari3yzra5bcv1sx,西門捷運商圈溫馨電梯套房可短租,21000,0,0,臺北市萬華區漢中街,萬華區,漢中街,25.0438693,121.5073407,1房1廳,1,1,0,0,0,2,分租套房,elevator,8,4,11,1,2026-07-07,individual,可養其他寵物、有飲水機、可無火煮食、對外窗、水泥隔間、有電梯、垃圾代收、保全設施、免仲介費
abptgdd1lz9tu3vb,https://www.dd-room.com/object/abptgdd1lz9tu3vb,西門捷運商圈電梯溫馨套房可短租,24000,0,0,臺北市萬華區漢中街,萬華區,漢中街,25.0438693,121.5073407,1房1廳1衛1陽台,1,1,1,0,1,2,分租套房,elevator,10,4,10,1,2026-07-07,individual,可養其他寵物、可無火煮食、有飲水機、對外窗、有電梯、水泥隔間、保全設施、垃圾代收、免仲介費、有陽台
inkv3rddjpubuzyj,https://www.dd-room.com/object/inkv3rddjpubuzyj,捷運關渡【優質3房2廳】有陽台★皆有窗★垃圾代收,32999,65998,1500,臺北市北投區自強路,北投區,自強路,25.1337118,121.4665134,3房2廳1衛2陽台,3,2,1,0,2,3,整層,elevator,36,5,6,12,2026-07-07,broker,可開伙、有電梯、垃圾代收、有陽台
xei95idy8mucer7o,https://www.dd-room.com/object/xei95idy8mucer7o,@@信義安和臨江商圈旁*質感裝潢景觀豪邸,290000,580000,13973,臺北市大安區信義路四段,大安區,信義路四段,25.0332246,121.5472642,3房2廳4衛2陽台,3,2,4,0,2,3,整層,elevator,93.2,12,34,12,2026-07-07,broker,對外窗、有電梯、水泥隔間
waatxpnfvikuljx0,https://www.dd-room.com/object/waatxpnfvikuljx0,近捷運松江南京【超值租案】精緻裝潢★獨立衛浴★雙面採光,11999,23998,0,臺北市中山區合江街,中山區,合江街,25.057273,121.5391556,1房1衛,1,0,1,0,0,2,獨立套房,apt,4,5,5,12,2026-07-07,broker,
k1yz0skjd14xeti6,https://www.dd-room.com/object/k1yz0skjd14xeti6,忠孝敦化4分【優質租案】大空間★獨洗衣機★大面採光,35000,70000,0,臺北市大安區忠孝東路四段,大安區,忠孝東路四段,25.0415416,121.5510456,1房1衛1陽台,1,0,1,0,1,2,獨立套房,apt,16,6,5,12,2026-07-07,broker,可養貓、可養狗、可開伙、有陽台
69lrmrnnlvhrdmou,https://www.dd-room.com/object/69lrmrnnlvhrdmou,舊莊國小【超值租案】流理臺★大面採光★乾溼分離,14999,29998,0,臺北市南港區合順街,南港區,合順街,25.0429832,121.6194393,1房1衛,1,0,1,0,0,2,獨立套房,apt,10,1,3,12,2026-07-07,broker,
h6ad8zzztsbsm3if,https://www.dd-room.com/object/h6ad8zzztsbsm3if,捷運圓山站【優質大空間】可寵★流理台★獨洗衣機,16499,32998,0,臺北市大同區重慶北路三段,大同區,重慶北路三段,25.0654451,121.513788,1房1衛,1,0,1,0,0,2,獨立套房,apt,6,3,3,12,2026-07-07,broker,可養貓、可養狗、可開伙、有電梯
rfzhpiljnwdj1u1m,https://www.dd-room.com/object/rfzhpiljnwdj1u1m,南港｜自住裝潢｜電梯兩房｜捷運昆陽｜坡道平面車位,53000,106000,3979,臺北市南港區重陽路,南港區,重陽路,25.0569437,121.5998567,2房1廳1衛1廚1陽台,2,1,1,1,1,2,整層,elevator,24.5,14,14,12,2026-07-07,individual,可開伙、對外窗、水泥隔間、有電梯、保全設施、垃圾代收、包裹代收、免仲介費、電費照台電、氣密窗、水費照台水、有陽台
thkngaokfk2kuhgd,https://www.dd-room.com/object/thkngaokfk2kuhgd,近捷運忠孝復興【超值租案】採光佳★近商圈★小資首選,8399,16798,500,臺北市中山區八德路,中山區,八德路,25.0459162,121.530757,1房1衛,1,0,1,0,0,2,獨立套房,apt,3,6,6,12,2026-07-06,broker,
aa9cntbepz4gmn5z,https://www.dd-room.com/object/aa9cntbepz4gmn5z,捷運西湖【秒殺租案】精緻裝潢★乾濕分離★變頻冷氣,9995,19990,0,臺北市內湖區內湖路一段,內湖區,內湖路一段,25.0799008,121.575434,1房1衛,1,0,1,0,0,2,獨立套房,apt,4,3,5,12,2026-07-06,broker,
pmvhu9qjo3lb54cj,https://www.dd-room.com/object/pmvhu9qjo3lb54cj,近捷運東門【超值租案】可補助★垃圾代收★有電梯,12499,24998,0,臺北市中正區杭州南路一段,中正區,杭州南路一段,25.0368297,121.5247724,1房1衛,1,0,1,0,0,2,獨立套房,elevator,5,3,6,12,2026-07-06,broker,有電梯、垃圾代收、租金補貼
oe20elc4rg4zn1js,https://www.dd-room.com/object/oe20elc4rg4zn1js,@@科技大樓捷運商圈旁*樹海林蔭高樓明亮美邸,220000,440000,12000,臺北市大安區敦化南路二段,大安區,敦化南路二段,25.0333105,121.5490456,4房2廳2衛2陽台,4,2,2,0,2,4,整層,elevator,75.9,13,21,12,2026-07-06,broker,對外窗、有電梯、水泥隔間
zxfr6p5diunapqez,https://www.dd-room.com/object/zxfr6p5diunapqez,近捷運景美【超值租案】有獨洗★免爬梯★獨立衛浴,8499,16998,500,臺北市文山區景福街,文山區,景福街,24.9958234,121.5360598,1房1衛1陽台,1,0,1,0,1,2,獨立套房,apt,3,1,5,12,2026-07-06,broker,有陽台
rgowpdghbdou1d7i,https://www.dd-room.com/object/rgowpdghbdou1d7i,即將釋出.北投區.明德站.可租補.低樓層.明亮設計感一房一廳101,20888,41776,0,臺北市北投區致遠一路一段,北投區,致遠一路一段,25.1087535,121.5159888,1房1廳1衛1廚,1,1,1,1,0,2,獨立套房,apt,8,1,5,12,2026-07-06,escrow,可無火煮食、對外窗、氣密窗、水泥隔間
jqbpnw19p3xuyqeo,https://www.dd-room.com/object/jqbpnw19p3xuyqeo,政大首選【超值租案】大空間★精緻裝潢★獨洗衣機,14999,29998,0,臺北市文山區木新路二段,文山區,木新路二段,24.9850982,121.5704141,1房1衛,1,0,1,0,0,2,獨立套房,apt,18,5,5,12,2026-07-06,broker,
pwvjxqxoibgfo0ki,https://www.dd-room.com/object/pwvjxqxoibgfo0ki,🚇西湖捷運3分鐘🚶走路到內科🥇8月底前簽約另折抵3000·全新裝潢・1G Mesh高速網路・獨立陽台獨洗・可租補,11900,31000,0,臺北市內湖區內湖路一段,內湖區,內湖路一段,25.0799008,121.575434,5房2廳2衛3陽台,5,2,2,0,3,2,分租套房,apt,35,1,3,12,2026-07-06,agent,可無火煮食、有飲水機、對外窗、水泥隔間、垃圾代收、包裹代收、定期清潔、免仲介費、電費照台電、水費照台水、可報稅、共生公寓、有陽台、租金補貼
oi7rtzmns7hgx5pc,https://www.dd-room.com/object/oi7rtzmns7hgx5pc,內湖分租套房505,9800,1960,0,臺北市內湖區金龍路,內湖區,金龍路,25.087531,121.5875696,1房1衛,1,0,1,0,0,2,分租套房,apt,5,5,6,12,2026-07-06,agent,對外窗、水泥隔間、免仲介費
bnwj4gztwjbdubwd,https://www.dd-room.com/object/bnwj4gztwjbdubwd,近捷運信義安和【優質2房1廳】可寵★新裝潢★免爬高,27999,55998,0,臺北市大安區通化街,大安區,通化街,25.0287281,121.5538123,2房1廳1衛,2,1,1,0,0,2,整層,house,13,2,2,12,2026-07-06,broker,可養貓、可養狗
wlzbxb5k7rcplzcd,https://www.dd-room.com/object/wlzbxb5k7rcplzcd,近捷運六張犁【優質3房2衛】可寵★房皆有窗★獨立陽台,38999,77998,0,臺北市大安區安居街,大安區,安居街,25.0185559,121.552177,3房2廳2衛1陽台,3,2,2,0,1,3,整層,apt,29,5,5,12,2026-07-06,broker,可養貓、可養狗、有陽台
h67ykqy5awx9vthp,https://www.dd-room.com/object/h67ykqy5awx9vthp,糶米公園【超值3房1廳】可補助★寵可洽★垃圾代收,27999,55998,2084,臺北市信義區吳興街,信義區,吳興街,25.0251064,121.5670694,3房1廳1衛,3,1,1,0,0,3,整層,elevator,26,3,7,12,2026-07-06,broker,可養貓、可養狗、可開伙、有電梯、垃圾代收、租金補貼
w4edak4oq921cgb9,https://www.dd-room.com/object/w4edak4oq921cgb9,@@忠孝敦化捷運商圈旁*交通便捷美四房,100000,200000,0,臺北市大安區敦化南路一段,大安區,敦化南路一段,25.0420962,121.5491292,4房2廳3衛1陽台,4,2,3,0,1,4,整層,elevator,66.7,11,14,12,2026-07-06,broker,可開伙、有電梯、水泥隔間、對外窗、有陽台
xgthxqfboixqm9et,https://www.dd-room.com/object/xgthxqfboixqm9et,@@松江南京捷運商圈旁*一層一戶美四房,180000,360000,10500,臺北市中山區南京東路二段,中山區,南京東路二段,25.0519468,121.5351156,4房2廳4衛3陽台,4,2,4,0,3,4,整層,elevator,90,4,7,12,2026-07-06,broker,可養貓、可養狗、可養其他寵物、可開伙、有電梯、水泥隔間、對外窗、有陽台
wicm2dgwiidgylsl,https://www.dd-room.com/object/wicm2dgwiidgylsl,@@士林捷運陽明山旁*寬敞獨棟別墅,80000,160000,0,臺北市士林區永公路,士林區,永公路,25.1367946,121.5671248,6房3廳3衛2陽台,6,3,3,0,2,6,整層,villa,160,999,2,12,2026-07-06,broker,可開伙、水泥隔間、對外窗、有陽台
gzdcz108rrp6ljdi,https://www.dd-room.com/object/gzdcz108rrp6ljdi,@@松江南京四平商圈旁*典雅明亮三房,80000,160000,12000,臺北市中山區吉林路,中山區,吉林路,25.0500274,121.5300457,3房2廳2衛1陽台,3,2,2,0,1,3,整層,elevator,83.9,5,14,12,2026-07-06,broker,可開伙、有電梯、對外窗、有陽台
x3crh7jroot5iy0d,https://www.dd-room.com/object/x3crh7jroot5iy0d,@@大安捷運商圈旁*寧靜採光美三房,64999,129998,800,臺北市大安區大安路二段,大安區,大安路二段,25.028533,121.5460078,3房2廳2衛1陽台,3,2,2,0,1,3,整層,elevator,36.3,2,6,12,2026-07-06,broker,對外窗、有電梯、水泥隔間
wn9moqj84kjadibw,https://www.dd-room.com/object/wn9moqj84kjadibw,@@善導寺台大東門商圈旁*靜巷時尚美居,53999,107998,5138,臺北市中正區仁愛路一段,中正區,仁愛路一段,25.0383307,121.5204463,2房1廳1衛1陽台,2,1,1,0,1,2,整層,elevator,20.5,3,7,12,2026-07-06,broker,可養貓、可養狗、可養其他寵物、可開伙、水泥隔間、對外窗、有電梯、有陽台
sxayfcbd6m2o7xvz,https://www.dd-room.com/object/sxayfcbd6m2o7xvz,@@東門捷運商圈旁*高樓景觀氣派豪邸,307999,615998,18610,臺北市大安區杭州南路二段,大安區,杭州南路二段,25.0309225,121.5222968,4房2廳2衛2陽台,4,2,2,0,2,4,整層,elevator,102.4,8,14,12,2026-07-06,broker,可開伙、有電梯、對外窗、有陽台
amirwa8mwxfgijqw,https://www.dd-room.com/object/amirwa8mwxfgijqw,@@台電大樓捷運商圈旁*質感裝潢美居,77999,156000,2000,臺北市大安區溫州街,大安區,溫州街,25.0242317,121.5334021,4房2廳3衛2陽台,4,2,3,0,2,4,整層,elevator,455,2,6,12,2026-07-06,broker,可開伙、有電梯、對外窗、有陽台
sjyjo82hvagxofbd,https://www.dd-room.com/object/sjyjo82hvagxofbd,@@天母石牌明德商圈旁*質感裝潢美四房,109999,220000,4500,臺北市士林區天母西路,士林區,天母西路,25.1184206,121.5278907,4房2廳3衛2陽台,4,2,3,0,2,4,整層,elevator,79.7,6,7,12,2026-07-06,broker,可開伙、有電梯、對外窗、有陽台
jsqamvhcn6lw6pwo,https://www.dd-room.com/object/jsqamvhcn6lw6pwo,@@信義象山捷運商圈*質感明亮美妝宅,59999,120000,6277,臺北市信義區信義路五段,信義區,信義路五段,25.0330722,121.5605445,1房1廳1衛1陽台,1,1,1,0,1,1,整層,elevator,27.6,11,19,12,2026-07-06,broker,可開伙、對外窗、有電梯、有陽台
giijmryr5ic7uya3,https://www.dd-room.com/object/giijmryr5ic7uya3,@@市政府站捷運商圈旁*高機能裝潢住辦,70000,140000,2499,臺北市信義區忠孝東路五段,信義區,忠孝東路五段,25.0411286,121.5785763,1房1廳1衛,1,1,1,0,0,1,整層,elevator,35.7,10,14,12,2026-07-06,broker,可開伙、有電梯、對外窗
sv0zqqf4oa33frnl,https://www.dd-room.com/object/sv0zqqf4oa33frnl,@@龍山寺捷運商圈旁*挑高採光明亮通風機能宅,35999,71998,2560,臺北市萬華區西園路一段,萬華區,西園路一段,25.0375708,121.4995658,2房1廳1衛2陽台,2,1,1,0,2,2,整層,elevator,25.6,13,13,12,2026-07-06,broker,對外窗、有電梯、水泥隔間
wsegct0bugbhrv2p,https://www.dd-room.com/object/wsegct0bugbhrv2p,@@信義安和捷運商圈旁*靜巷優質生活機能宅,49999,99998,0,臺北市大安區文昌街,大安區,文昌街,25.0325321,121.5533996,3房2廳2衛1陽台,3,2,2,0,1,3,整層,apt,35.1,1,4,12,2026-07-06,broker,對外窗、可開伙、水泥隔間
dqelkohzqfqorxkh,https://www.dd-room.com/object/dqelkohzqfqorxkh,@@信義象山捷運商圈*採光通風一樓可停車,43000,86000,0,臺北市信義區信義路六段,信義區,信義路六段,25.0349379,121.5765026,3房2廳1衛1陽台,3,2,1,0,1,3,整層,apt,50,1,5,12,2026-07-06,broker,可開伙、對外窗、有陽台
pbo7tx615qwbphs2,https://www.dd-room.com/object/pbo7tx615qwbphs2,@@西門捷運商圈旁*高機能住辦空間,70000,140000,5755,臺北市萬華區康定路,萬華區,康定路,25.0368274,121.5015066,5房1廳5衛1陽台,5,1,5,0,1,5,整層,elevator,78.9,4,11,12,2026-07-06,broker,對外窗、有電梯、有陽台
44lywfg3zcxdeuuh,https://www.dd-room.com/object/44lywfg3zcxdeuuh,@@忠孝敦化捷運商圈旁*溫馨質感美宅,79888,160000,0,臺北市大安區仁愛路四段,大安區,仁愛路四段,25.0366083,121.5511194,2房2廳1衛1陽台,2,2,1,0,1,2,整層,elevator,25,4,13,12,2026-07-06,broker,可開伙、有電梯、對外窗、有陽台
sodayk8hohd84jy2,https://www.dd-room.com/object/sodayk8hohd84jy2,@@忠孝敦化捷運商圈旁*精緻優質機能景觀美宅,54999,109998,1275,臺北市大安區安和路一段,大安區,安和路一段,25.0376884,121.5512504,2房1廳1衛1陽台,2,1,1,0,1,2,整層,elevator,17.2,12,12,12,2026-07-06,broker,對外窗、有電梯、水泥隔間、可開伙
knq87d4ak7exhwgk,https://www.dd-room.com/object/knq87d4ak7exhwgk,@@信義象山捷運商圈旁*精緻明亮挑高豪邸,168000,336000,0,臺北市信義區信義路五段,信義區,信義路五段,25.0330722,121.5605445,2房2廳2衛2陽台,2,2,2,0,2,2,整層,elevator,61.6,2,27,12,2026-07-06,broker,對外窗、有電梯、水泥隔間
aaj82oukdiicv9op,https://www.dd-room.com/object/aaj82oukdiicv9op,@@信義吳興商圈旁*優質精緻明亮景觀美居,95999,191998,9996,臺北市信義區吳興街,信義區,吳興街,25.0251064,121.5670694,2房2廳2衛2陽台,2,2,2,0,2,2,整層,elevator,60,11,19,12,2026-07-06,broker,對外窗、有電梯、水泥隔間
tcxw9nrsl7cqqtgi,https://www.dd-room.com/object/tcxw9nrsl7cqqtgi,@@台北101/世貿捷運商圈旁*高樓景觀明亮機能宅,62999,125998,5000,臺北市信義區信義路五段,信義區,信義路五段,25.0330722,121.5605445,2房2廳1衛1陽台,2,2,1,0,1,2,整層,elevator,25.4,16,16,12,2026-07-06,broker,對外窗、有電梯、水泥隔間
z8er0mqxwx81amgd,https://www.dd-room.com/object/z8er0mqxwx81amgd,近捷運世貿【優質大空間】獨立陽台★洗衣機★採光優,17995,35990,600,臺北市信義區吳興街,信義區,吳興街,25.0251064,121.5670694,1房1衛1陽台,1,0,1,0,1,2,獨立套房,apt,6,4,4,12,2026-07-06,broker,可開伙、有陽台
g6pcmkdeaw2pumsj,https://www.dd-room.com/object/g6pcmkdeaw2pumsj,近天母運動公園【秒殺租案】短租洽★貓可洽★獨洗衣機,13800,27600,200,臺北市士林區天母東路,士林區,天母東路,25.118193,121.5367728,1房1衛,1,0,1,0,0,2,獨立套房,apt,5,2,5,12,2026-07-06,broker,可養貓、可養狗、可開伙
av5b1ecz76dveloe,https://www.dd-room.com/object/av5b1ecz76dveloe,💓松江南京捷運/可養貓/獨立洗衣機/租補不會過,17500,35000,0,臺北市中山區長春路,中山區,長春路,25.0546827,121.5389309,1房1衛,1,0,1,0,0,2,獨立套房,apt,9,3,4,12,2026-07-06,broker,可無火煮食、可養貓、對外窗
zvhd9abbymjwq1f1,https://www.dd-room.com/object/zvhd9abbymjwq1f1,💓忠孝新生捷運/善導寺/可養貓咪/可租補可報稅,8500,17000,0,臺北市中正區忠孝東路二段,中正區,忠孝東路二段,25.0425436,121.531746,1房,1,0,0,0,0,1,雅房,apt,4,3,5,12,2026-07-06,broker,可無火煮食、可養貓、租金補貼、可報稅、可入籍
achf2mlxtlpkpodg,https://www.dd-room.com/object/achf2mlxtlpkpodg,💓松江南京捷運超大套房/可養貓🐱獨立洗衣機,17500,35000,0,臺北市中山區長春路,中山區,長春路,25.0546827,121.5389309,1房1衛,1,0,1,0,0,2,獨立套房,apt,9,3,4,12,2026-07-06,broker,可無火煮食、可養貓、對外窗
lsnalihnopfqtzxh,https://www.dd-room.com/object/lsnalihnopfqtzxh,💓101世貿/象山捷運/採光雅房/小資必備,6500,13000,0,臺北市信義區吳興街,信義區,吳興街,25.0251064,121.5670694,1房1陽台,1,0,0,0,1,1,雅房,apt,4,5,4,12,2026-07-06,broker,可無火煮食、有陽台、對外窗
8cqnlmc858iobqax,https://www.dd-room.com/object/8cqnlmc858iobqax,💓大橋頭捷運大套房/可養貓🐱獨立洗衣機/租補不會過,13500,27000,500,臺北市大同區保安街,大同區,保安街,25.059116,121.5125116,1房1衛,1,0,1,0,0,2,獨立套房,apt,7,3,2,12,2026-07-06,broker,可無火煮食、可養貓、對外窗
gnlvkmjwzsn50btd,https://www.dd-room.com/object/gnlvkmjwzsn50btd,💓松江南京捷運/電梯/可租補/可養貓/無採光窗,13000,26000,0,臺北市中山區南京東路二段,中山區,南京東路二段,25.0519468,121.5351156,1房1衛,1,0,1,0,0,2,獨立套房,elevator,6,8,8,12,2026-07-06,broker,租金補貼、可報稅、可入籍、可養貓、可養其他寵物
aeedgtgkbxspcxmn,https://www.dd-room.com/object/aeedgtgkbxspcxmn,💓六張犁捷運/可養貓咪/可租補/單人套房,15000,30000,0,臺北市大安區通化街,大安區,通化街,25.0287281,121.5538123,1房1衛1陽台,1,0,1,0,1,2,獨立套房,apt,6,4,4,12,2026-07-06,broker,租金補貼、可報稅、有陽台、可入籍、可養貓、對外窗
cq4f6iolgks8tzng,https://www.dd-room.com/object/cq4f6iolgks8tzng,💓政大/景文高中/電梯套房B1/可養貓咪/含管含水費,12750,25500,0,臺北市文山區木新路二段,文山區,木新路二段,24.9850982,121.5704141,1房1衛,1,0,1,0,0,2,獨立套房,elevator,6,-1,5,12,2026-07-06,broker,可無火煮食、可養貓、可養其他寵物
vok9gr3lku73h4el,https://www.dd-room.com/object/vok9gr3lku73h4el,捷運台電大樓2分【超值租案】對外窗★女性專屬★師大商圈,12000,24000,0,臺北市大安區師大路,大安區,師大路,25.0218269,121.528185,1房1衛,1,0,1,0,0,2,獨立套房,apt,4,2,3,12,2026-07-05,broker,
rwk1elksamomjg2z,https://www.dd-room.com/object/rwk1elksamomjg2z,古亭捷運高樓雅筑◕‿◕寓見忠杏,55000,110000,659,臺北市中正區和平西路一段,中正區,和平西路一段,25.0266515,121.5199906,1房1廳1衛1廚1陽台,1,1,1,1,1,1,整層,elevator,22,11,11,12,2026-07-05,broker,對外窗、可開伙、有電梯、有陽台、電費照台電、水費照台水、可報稅、租金補貼、可入籍
k5eopoedggfiffpm,https://www.dd-room.com/object/k5eopoedggfiffpm,優質居家環境捷運公車火車站超商百貨市場學校夜市醫院皆在附近,7500,14000,0,臺北市萬華區大理街,萬華區,大理街,25.0340843,121.4963684,4房1廳1衛1廚1陽台,4,1,1,1,1,1,雅房,apt,28.5,5,4,12,2026-07-05,individual,可開伙、有飲水機、對外窗、電費照台電、免仲介費、水費照台水、有陽台
a5euh5hkrny5jjpu,https://www.dd-room.com/object/a5euh5hkrny5jjpu,複製-面公園近捷運市場行政區,50000,100000,2380,臺北市大同區大龍街,大同區,大龍街,25.0687228,121.5158785,2房2廳2衛1廚1陽台,2,2,2,1,1,2,整層,elevator,26.5,7,13,12,2026-07-05,individual,可養貓、可養狗、可養其他寵物、可開伙、可無火煮食、有飲水機、對外窗、氣密窗、有電梯、水泥隔間、保全設施、垃圾代收、包裹代收、定期清潔、免仲介費、電費照台電、水費照台水、有陽台、共生公寓、高齡友善、智慧宅
60c01eb9f0e548044460e4ac,https://www.dd-room.com/object/60c01eb9f0e548044460e4ac,大安區.捷運台電大樓站.低樓層.獨立陽台.設計感兩房一廳201,32888,65776,0,臺北市大安區雲和街,大安區,雲和街,25.0234945,121.5300721,2房1廳1衛1廚1陽台,2,1,1,1,1,2,整層,apt,18,2,5,12,2026-07-05,escrow,對外窗、可無火煮食、水泥隔間、氣密窗、有陽台
cvsqlthlpzx4lo0e,https://www.dd-room.com/object/cvsqlthlpzx4lo0e,面公園近捷運市場行政區,50000,100000,2380,臺北市大同區大龍街,大同區,大龍街,25.0687228,121.5158785,2房2廳2衛1廚1陽台,2,2,2,1,1,2,整層,elevator,26.5,7,13,12,2026-07-05,individual,可養貓、可養狗、可養其他寵物、可開伙、可無火煮食、有飲水機、對外窗、氣密窗、有電梯、水泥隔間、保全設施、垃圾代收、包裹代收、定期清潔、免仲介費、電費照台電、水費照台水、有陽台、共生公寓、高齡友善、智慧宅
11m5lgtf4qahtkiz,https://www.dd-room.com/object/11m5lgtf4qahtkiz,北醫大【超值租案】免爬梯★採光優★獨立衛浴,9999,19998,0,臺北市信義區吳興街,信義區,吳興街,25.0251064,121.5670694,1房1衛,1,0,1,0,0,2,獨立套房,apt,8,1,2,12,2026-07-05,broker,
mo563jivlvc0iejo,https://www.dd-room.com/object/mo563jivlvc0iejo,捷運港墘【秒殺租案】江南商圈★小資首選★衛浴開窗,8999,17998,500,臺北市內湖區江南街,內湖區,江南街,25.0771479,121.5772438,1房1衛,1,0,1,0,0,2,獨立套房,apt,3,6,6,12,2026-07-04,broker,
r82jbic4kkp6dqsf,https://www.dd-room.com/object/r82jbic4kkp6dqsf,捷運雙連【優質2房1廳】警衛管理★垃圾代收★房皆有窗,31999,63998,2552,臺北市中山區新生北路二段,中山區,新生北路二段,25.0297486,121.5327247,2房1廳1衛1陽台,2,1,1,0,1,2,整層,elevator,26,4,12,12,2026-07-04,broker,可開伙、有電梯、垃圾代收、有陽台
rzqcdhh45ffqohhh,https://www.dd-room.com/object/rzqcdhh45ffqohhh,近捷運六張犁【優質3房2衛】可寵★房皆有窗★獨立陽台,38999,77998,0,臺北市大安區安居街,大安區,安居街,25.0185559,121.552177,3房2廳2衛1陽台,3,2,2,0,1,3,整層,apt,30,5,5,12,2026-07-04,broker,可養貓、可養狗、可開伙、有陽台
5kovn6u1grcqtnhn,https://www.dd-room.com/object/5kovn6u1grcqtnhn,捷運大安2分【超值租案】補助洽★飲水機★垃圾代收,15499,30998,1000,臺北市大安區信義路四段,大安區,信義路四段,25.0332246,121.5472642,1房1衛,1,0,1,0,0,2,獨立套房,apt,4,2,3,12,2026-07-04,broker,垃圾代收、租金補貼
qbs5i3msbykehfxr,https://www.dd-room.com/object/qbs5i3msbykehfxr,捷運士林站【超值租案】洗衣機★採光優★限女性,16000,32000,0,臺北市士林區美崙街,士林區,美崙街,25.0971633,121.5229249,1房1衛1陽台,1,0,1,0,1,2,獨立套房,apt,4,2,3,12,2026-07-04,broker,可開伙、有陽台
0wyooocccqxldls5,https://www.dd-room.com/object/0wyooocccqxldls5,"台北東區SOGO百貨旁,捷運忠孝復興出站1分鐘到家",26000,52000,500,臺北市大安區忠孝東路四段,大安區,忠孝東路四段,25.0415416,121.5510456,1房1廳1衛,1,1,1,0,0,2,分租套房,elevator,11,10,10,12,2026-07-04,agent,對外窗、有電梯、水泥隔間、免仲介費、包裹代收、垃圾代收、保全設施、可無火煮食、電費照台電、共生公寓
8bqpdhsv3kztvjze,https://www.dd-room.com/object/8bqpdhsv3kztvjze,近東吳大學【超值租案】獨立衛浴★有對外窗,14990,29980,0,臺北市士林區力行街,士林區,力行街,25.0971702,121.5486269,1房1衛1陽台,1,0,1,0,1,2,獨立套房,house,5,3,4,12,2026-07-03,broker,有陽台
talpo4lnf26y5gmw,https://www.dd-room.com/object/talpo4lnf26y5gmw,近捷運芝山【超值租案】採光優★變頻冷氣★獨立衛浴,9899,19798,0,臺北市士林區中山北路六段,士林區,中山北路六段,25.1032702,121.5250883,1房1衛,1,0,1,0,0,2,獨立套房,apt,4,5,4,12,2026-07-03,broker,
yputppw080emgcfn,https://www.dd-room.com/object/yputppw080emgcfn,近捷運南港展覽館【優質3房2廳】可補助★有陽台★警衛管理,32999,65998,2640,臺北市南港區中南路,南港區,中南路,25.042715,121.5836255,3房2廳1衛1陽台,3,2,1,0,1,3,整層,elevator,31,4,9,12,2026-07-03,broker,可開伙、有電梯、有陽台、租金補貼
1gaonwgpp4fhf5b3,https://www.dd-room.com/object/1gaonwgpp4fhf5b3,捷運市政府1分【優質租案】可補助★養寵物★垃圾代收,24799,49598,500,臺北市信義區忠孝東路五段,信義區,忠孝東路五段,25.0411286,121.5785763,1房1衛1陽台,1,0,1,0,1,2,獨立套房,elevator,5,2,6,12,2026-07-03,broker,可養貓、可養狗、有電梯、垃圾代收、有陽台、租金補貼
y20yfhoxoa72jcjp,https://www.dd-room.com/object/y20yfhoxoa72jcjp,捷運市政府1分【秒殺租案】可補助★養貓咪★垃圾代收,21499,42998,1500,臺北市信義區忠孝東路五段,信義區,忠孝東路五段,25.0411286,121.5785763,1房1衛,1,0,1,0,0,2,獨立套房,elevator,4,2,6,12,2026-07-03,broker,可養貓、可養狗、有電梯、垃圾代收、租金補貼
xiqjajhmhndekh4m,https://www.dd-room.com/object/xiqjajhmhndekh4m,近捷運港墘【超值租案】限女性★獨立衛浴★小資首選,9499,18998,0,臺北市內湖區江南街,內湖區,江南街,25.0771479,121.5772438,1房1衛,1,0,1,0,0,2,獨立套房,apt,4,4,5,12,2026-07-03,broker,
xlhwaryw1ckeyyz4,https://www.dd-room.com/object/xlhwaryw1ckeyyz4,北士科【超值3房1廳】附傢俱★有陽台★雙層出租,24990,49980,0,臺北市士林區中正路,士林區,中正路,25.0946753,121.5232748,3房1廳1衛1陽台,3,1,1,0,1,3,整層,apt,18,4,5,12,2026-07-03,broker,可開伙、有陽台
nuhcsvielen589ff,https://www.dd-room.com/object/nuhcsvielen589ff,@@國父紀念館大巨蛋商圈旁*靜巷溫馨機能宅,38999,77998,0,臺北市大安區光復南路,大安區,光復南路,25.0432029,121.5576586,3房2廳2衛,3,2,2,0,0,3,整層,apt,30,5,5,12,2026-07-03,broker,對外窗、可開伙、水泥隔間
9bawl0kzbrsqbd7m,https://www.dd-room.com/object/9bawl0kzbrsqbd7m,信義安和捷運光復南路獨立套房,11000,22000,0,臺北市大安區光復南路,大安區,光復南路,25.0432029,121.5576586,1房1衛,1,0,1,0,0,2,獨立套房,apt,6,3,5,12,2026-07-03,broker,
ftiz7karrgqlybxp,https://www.dd-room.com/object/ftiz7karrgqlybxp,捷運復興崗【超值租案】養寵洽★洗衣機★有陽台,14499,28998,2000,臺北市北投區新興路,北投區,新興路,25.1407088,121.488389,1房1衛,1,0,1,0,0,2,獨立套房,elevator,6,1,3,12,2026-07-03,broker,有電梯
x6a2ecueifhrdmp6,https://www.dd-room.com/object/x6a2ecueifhrdmp6,@@信義安和捷運商圈旁*生活機能採光明亮宅,65999,131998,2000,臺北市大安區敦化南路二段,大安區,敦化南路二段,25.0333105,121.5490456,3房2廳2衛3陽台,3,2,2,0,3,3,整層,elevator,51.1,7,7,12,2026-07-03,broker,對外窗、有電梯、水泥隔間
flzrkkkfim1wvuhr,https://www.dd-room.com/object/flzrkkkfim1wvuhr,捷運石牌4分【優質租案】大空間★洗衣機★流理台,19999,39998,0,臺北市北投區東華街二段,北投區,東華街二段,25.1171922,121.5139524,1房1衛,1,0,1,0,0,2,獨立套房,apt,6,3,5,12,2026-07-03,broker,
tjxprijjrkmmq4nl,https://www.dd-room.com/object/tjxprijjrkmmq4nl,捷運象山【豪邸3房3衛】可報稅★養貓咪★警衛管理,127999,255998,7100,臺北市信義區松德路,信義區,松德路,25.0373755,121.5748419,3房2廳3衛1廚1陽台,3,2,3,1,1,3,整層,elevator,68,26,30,12,2026-07-03,broker,可養貓、可養狗、可開伙、有電梯、有陽台
b6jziqpap6slitx6,https://www.dd-room.com/object/b6jziqpap6slitx6,@@士林捷運商圈旁*高樓景觀明亮美三房,55999,111998,5750,臺北市士林區延平北路六段,士林區,延平北路六段,25.0874449,121.5090499,3房2廳2衛1陽台,3,2,2,0,1,3,整層,elevator,53.8,11,11,12,2026-07-03,broker,對外窗、有電梯、水泥隔間、可開伙
daritialfol8o450,https://www.dd-room.com/object/daritialfol8o450,捷運港墘5分【超值租案】可補助★免爬梯★女性專屬,10499,20998,500,臺北市內湖區麗山街,內湖區,麗山街,25.0815911,121.5726397,1房1衛,1,0,1,0,0,2,獨立套房,apt,3,1,5,12,2026-07-03,broker,可開伙、租金補貼
bsb7ftn9cazv4yae,https://www.dd-room.com/object/bsb7ftn9cazv4yae,捷運台電大樓【超值租案】洗衣機★採光優★獨立衛浴,9999,19998,0,臺北市大安區和平東路一段,大安區,和平東路一段,25.0270164,121.524177,1房1衛,1,0,1,0,0,2,獨立套房,apt,4,3,5,12,2026-07-03,broker,
m6c1ggw73pmn2wuk,https://www.dd-room.com/object/m6c1ggw73pmn2wuk,捷運六張犁【優質2房3廳】採光優★新裝修★和平高中,31999,63998,0,臺北市大安區臥龍街,大安區,臥龍街,25.0109102,121.5639627,2房3廳1衛1陽台,2,3,1,0,1,2,整層,elevator,25,3,4,12,2026-07-03,broker,可開伙、有電梯、有陽台
sgbq8ks9nn3wirzz,https://www.dd-room.com/object/sgbq8ks9nn3wirzz,木新市場【超值租案】可補助★入籍★洗衣機,14400,28800,600,臺北市文山區樟新街,文山區,樟新街,24.9794151,121.5551601,1房1衛,1,0,1,0,0,2,獨立套房,elevator,12,-1,7,12,2026-07-03,broker,可開伙、有電梯、租金補貼、可入籍
jbutihfjl6s0eli0,https://www.dd-room.com/object/jbutihfjl6s0eli0,@@雙連捷運商圈旁*挑高優質明亮通風美宅,47999,95998,2167,臺北市中山區新生北路二段,中山區,新生北路二段,25.0297486,121.5327247,2房1廳1衛3陽台,2,1,1,0,3,2,整層,elevator,21.7,7,13,12,2026-07-03,broker,對外窗、有電梯、水泥隔間
hwirfiroocwxdbdk,https://www.dd-room.com/object/hwirfiroocwxdbdk,近捷運忠孝新生【優質2房2廳】有陽台★附傢俱★電梯,48999,97998,0,臺北市大安區建國南路一段,大安區,建國南路一段,25.0431737,121.5369269,2房2廳1衛1陽台,2,2,1,0,1,2,整層,elevator,17,7,15,12,2026-07-03,broker,有電梯、有陽台
8dmfhydmoamup0sz,https://www.dd-room.com/object/8dmfhydmoamup0sz,捷運中山5分【豪邸4房2廳】房皆有窗★垃圾代收★警衛管理,71999,143998,2950,臺北市大同區承德路二段,大同區,承德路二段,25.0600848,121.5183019,4房2廳2衛2陽台,4,2,2,0,2,4,整層,elevator,43,5,12,12,2026-07-03,broker,可開伙、有電梯、垃圾代收、有陽台
iwqxsazkxkn0accx,https://www.dd-room.com/object/iwqxsazkxkn0accx,青年公園【優質租案】可補助★養寵物★工作室,25999,51998,0,臺北市萬華區萬大路,萬華區,萬大路,25.0267719,121.5005206,1房1衛,1,0,1,0,0,2,獨立套房,apt,24,2,4,12,2026-07-03,broker,可養貓、可養狗、租金補貼
exqtq5klcbqvvd4c,https://www.dd-room.com/object/exqtq5klcbqvvd4c,近捷運松山【超值租案】飲水機★近商圈★乾溼分離,12999,25998,0,臺北市信義區永吉路,信義區,永吉路,25.0455822,121.5742053,1房1衛,1,0,1,0,0,2,獨立套房,apt,4,4,5,12,2026-07-03,broker,可開伙
txjqjte11z4uyvxy,https://www.dd-room.com/object/txjqjte11z4uyvxy,捷運象山站【優質租案】可補助★大空間★警衛管理,30000,60000,2905,臺北市信義區信義路五段,信義區,信義路五段,25.0330722,121.5605445,1房1衛,1,0,1,0,0,2,獨立套房,elevator,9,3,13,12,2026-07-03,broker,可開伙、有電梯、租金補貼
uwxr7indjxpjsevw,https://www.dd-room.com/object/uwxr7indjxpjsevw,原木香杉雙床豪華房,25000,25000,0,臺北市中正區博愛路,中正區,博愛路,25.037819,121.5110521,1房1衛,1,0,1,0,0,2,獨立套房,elevator,10,6,9,1,2026-07-03,individual,有電梯、水泥隔間、定期清潔、有飲水機
upmuglgk3t4berr9,https://www.dd-room.com/object/upmuglgk3t4berr9,奇岩站-重劃區優質四房,89000,178000,9518,臺北市北投區三合街一段,北投區,三合街一段,25.1270175,121.5056414,4房2廳2衛1廚1陽台,4,2,2,1,1,4,整層,elevator,59,2,9,12,2026-07-03,broker,可開伙、水泥隔間、有電梯、氣密窗、對外窗、包裹代收、垃圾代收、水費照台水、電費照台電、有陽台
4moyh7fk6xqpb19s,https://www.dd-room.com/object/4moyh7fk6xqpb19s,🪄西門商圈獨立套房✔️免爬梯✔️全新冷氣冰箱,19000,38000,850,臺北市萬華區成都路,萬華區,成都路,25.0437276,121.5017469,,0,0,0,0,0,2,獨立套房,elevator,8,7,10,12,2026-07-02,broker,可開伙、對外窗、有電梯、社會住宅、租金補貼
ky29gaduwwydrbar,https://www.dd-room.com/object/ky29gaduwwydrbar,近捷運芝山【優質雅房】獨立陽台★洗衣機★大空間,18500,37000,0,臺北市士林區中山北路六段,士林區,中山北路六段,25.1032702,121.5250883,1房1衛1陽台,1,0,1,0,1,2,獨立套房,apt,11,5,5,12,2026-07-02,broker,可開伙、有陽台
rxqihgmcibsunhwd,https://www.dd-room.com/object/rxqihgmcibsunhwd,近捷運台北小巨蛋【優質租案】大空間★採光優★獨立衛浴,15500,31000,500,臺北市松山區光復北路,松山區,光復北路,25.0499626,121.5578025,1房1衛,1,0,1,0,0,2,獨立套房,apt,7,3,4,12,2026-07-02,broker,
8jrvxnknhbnkahkc,https://www.dd-room.com/object/8jrvxnknhbnkahkc,捷運中山國小站【優質租案】限女★垃圾代收★獨立衛浴,19799,39598,0,臺北市中山區雙城街,中山區,雙城街,25.0645288,121.5243338,1房1衛,1,0,1,0,0,2,獨立套房,apt,4,3,5,12,2026-07-02,broker,可開伙、垃圾代收
cf7fphsiv4nmhunl,https://www.dd-room.com/object/cf7fphsiv4nmhunl,捷運市政府1分【優質租案】可租補★養寵洽★獨洗衣機,29500,59000,0,臺北市信義區忠孝東路五段,信義區,忠孝東路五段,25.0411286,121.5785763,1房1衛,1,0,1,0,0,2,獨立套房,elevator,4,4,6,12,2026-07-02,broker,可養貓、可養狗、有電梯、租金補貼
xrvysbmgtjptszwi,https://www.dd-room.com/object/xrvysbmgtjptszwi,近捷運台電大樓【優質租案】免爬梯★獨立衛浴★精緻裝潢,10000,20000,0,臺北市大安區泰順街,大安區,泰順街,25.0250271,121.5314639,1房1衛,1,0,1,0,0,2,獨立套房,apt,3,1,4,12,2026-07-02,broker,
qefqp95zqm4vgftk,https://www.dd-room.com/object/qefqp95zqm4vgftk,捷運芝山5分【豪邸２＋１房２衛】平面車位★飯店管理★房皆有窗,97999,195998,7002,臺北市士林區中山北路六段,士林區,中山北路六段,25.1032702,121.5250883,3房2廳2衛2陽台,3,2,2,0,2,3,整層,elevator,47,4,13,12,2026-07-02,broker,可開伙、有電梯、有陽台
gola7tfcbwmfaofp,https://www.dd-room.com/object/gola7tfcbwmfaofp,近捷運景美【超值租案】可租補★大空間★獨洗衣機,11400,22800,600,臺北市文山區景福街,文山區,景福街,24.9958234,121.5360598,1房1衛,1,0,1,0,0,2,獨立套房,apt,6,2,6,12,2026-07-02,broker,可開伙、租金補貼
ctjqmfyxoaucrkhu,https://www.dd-room.com/object/ctjqmfyxoaucrkhu,銘傳大學【超值租案】可補助★限女性★獨立衛浴,8799,17598,400,臺北市士林區福港街,士林區,福港街,25.0880599,121.5180227,1房1衛,1,0,1,0,0,2,獨立套房,apt,3,3,4,12,2026-07-02,broker,租金補貼
twdksnr3apd2vtxg,https://www.dd-room.com/object/twdksnr3apd2vtxg,信義3樓/捷運6分/3米大客廳/乾濕分離/獨洗曬/極新/可炊.,30000,60000,0,臺北市信義區和平東路三段,信義區,和平東路三段,25.0144211,121.5622247,1房1廳1衛1廚1陽台,1,1,1,1,1,2,獨立套房,apt,10.5,3,5,12,2026-07-02,agent,有飲水機、對外窗、氣密窗、水泥隔間、可開伙、免仲介費、有陽台
zsmueqe5l3xfvvqk,https://www.dd-room.com/object/zsmueqe5l3xfvvqk,兆基社會住宅🏠友善屋源🧡木新路1+1房.低樓層.社區大樓,26000,52000,980,臺北市文山區木新路二段,文山區,木新路二段,24.9850982,121.5704141,2房1廳1衛1陽台,2,1,1,0,1,2,整層,elevator,11.7,1,6,12,2026-07-02,broker,可無火煮食、可養貓、租金補貼、可報稅、可入籍、社會住宅、免仲介費、有陽台、可開伙
un244dkzztekjv4m,https://www.dd-room.com/object/un244dkzztekjv4m,兆基社會住宅🏠友善屋源🧡裝修整理中🧡可先預約🧡可租補,12000,24000,0,臺北市萬華區青年路,萬華區,青年路,25.0250272,121.5034777,1房1衛,1,0,1,0,0,2,獨立套房,apt,13.3,4,5,12,2026-07-02,broker,可無火煮食、租金補貼、可報稅、可入籍、社會住宅、免仲介費、可開伙
chmv5szpnrj6qte9,https://www.dd-room.com/object/chmv5szpnrj6qte9,兆基社會住宅🏠友善屋源🧡台北車站🧡免仲🧡可租補入籍,23000,46000,1634,臺北市中正區開封街一段,中正區,開封街一段,25.0459566,121.5104087,1房1衛,1,0,1,0,0,2,獨立套房,elevator,8.1,11,14,12,2026-07-02,broker,可無火煮食、可報稅、有電梯、可入籍、社會住宅、免仲介費、可開伙、租金補貼
nimz7oonnjiqenfg,https://www.dd-room.com/object/nimz7oonnjiqenfg,天母國小【超值3房2衛】有廚房★房皆有窗★獨立陽台,38990,77980,0,臺北市士林區天母北路,士林區,天母北路,25.1201281,121.526482,3房2廳2衛2陽台,3,2,2,0,2,3,整層,apt,28,5,5,12,2026-07-02,broker,可開伙、有陽台
hslv3v34fghirkvu,https://www.dd-room.com/object/hslv3v34fghirkvu,近捷運行天宮【超值租案】對外窗★近商圈★獨立衛浴,10999,21998,0,臺北市中山區中原街,中山區,中原街,25.0637555,121.529034,1房1衛,1,0,1,0,0,2,獨立套房,house,4,4,4,12,2026-07-01,broker,
wc3pprctujoeax4y,https://www.dd-room.com/object/wc3pprctujoeax4y,中崙高中現代簡約風格公寓-拎包入住,55000,110000,600,臺北市松山區八德路四段,松山區,八德路四段,25.0488403,121.564381,3房2廳2衛1廚2陽台,3,2,2,1,2,3,整層,apt,34.1,5,5,12,2026-07-01,individual,可開伙、有飲水機、對外窗、氣密窗、水泥隔間、垃圾代收、免仲介費、電費照台電、水費照台水、可報稅、有陽台、租金補貼、可入籍
mdgtbtegcjggrxx1,https://www.dd-room.com/object/mdgtbtegcjggrxx1,@@士林芝山捷運商圈旁*河景採光明亮大露臺2房,44999,89998,1300,臺北市士林區雙溪街,士林區,雙溪街,25.1011645,121.5318572,2房2廳1衛3陽台,2,2,1,0,3,2,整層,elevator,30.3,9,9,12,2026-07-01,broker,對外窗、有電梯、水泥隔間
xbzfvhxnrxtd3dpr,https://www.dd-room.com/object/xbzfvhxnrxtd3dpr,@@龍山寺南機場夜市旁*採光明亮三房,47999,95998,0,臺北市萬華區西園路二段,萬華區,西園路二段,25.0263562,121.4931615,3房2廳2衛1陽台,3,2,2,0,1,3,整層,elevator,40,9,14,12,2026-07-01,broker,對外窗、有電梯、水泥隔間
nxiblis9wrlgn9s6,https://www.dd-room.com/object/nxiblis9wrlgn9s6,@@永康商圈森林公園旁*典雅明亮美住辦,68999,137998,4000,臺北市大安區新生南路二段,大安區,新生南路二段,25.0297486,121.5327247,3房2廳2衛1陽台,3,2,2,0,1,3,整層,elevator,53.7,7,12,12,2026-07-01,broker,對外窗、有電梯、水泥隔間
8ihvl0l1db5ghquw,https://www.dd-room.com/object/8ihvl0l1db5ghquw,@@捷運西門博愛特區*典雅明亮三房,69999,139998,7000,臺北市中正區博愛路,中正區,博愛路,25.037819,121.5110521,3房2廳2衛2陽台,3,2,2,0,2,3,整層,elevator,36.7,5,15,12,2026-07-01,broker,對外窗、有電梯、水泥隔間
dwevh3xdjpghyoih,https://www.dd-room.com/object/dwevh3xdjpghyoih,短租可免仲介費@@遠企大安信義臨江通化街商圈溫馨美雅房,13800,13800,0,臺北市大安區通化街,大安區,通化街,25.0287281,121.5538123,1房1廳1衛1陽台,1,1,1,0,1,1,雅房,apt,4,2,5,12,2026-07-01,broker,可開伙、有陽台
9espzcsebwieovc2,https://www.dd-room.com/object/9espzcsebwieovc2,@@內湖成功路大湖公園旁*稀有獨棟透天,100000,200000,1500,臺北市內湖區大湖街,內湖區,大湖街,25.0960205,121.6058394,5房5廳4衛3陽台,5,5,4,0,3,5,整層,villa,96.1,999,3,12,2026-07-01,broker,有陽台、可開伙、對外窗
hz8xtlkththrpj0h,https://www.dd-room.com/object/hz8xtlkththrpj0h,@@忠孝復興建國花市商圈旁*景觀明亮通風宅,69999,139998,6423,臺北市大安區仁愛路三段,大安區,仁愛路三段,25.037748,121.533251,4房2廳2衛2陽台,4,2,2,0,2,4,整層,elevator,42,8,12,12,2026-07-01,broker,對外窗、有電梯、水泥隔間
2s5jlxuvs2agdxt2,https://www.dd-room.com/object/2s5jlxuvs2agdxt2,@@六張犁敦南遠企商圈旁*典雅優質美三房,66999,133998,6571,臺北市大安區安和路二段,大安區,安和路二段,25.0287705,121.5505724,3房2廳2衛2陽台,3,2,2,0,2,3,整層,elevator,46.2,8,17,12,2026-07-01,broker,對外窗、有電梯、水泥隔間
pasezhdftcdk8iu7,https://www.dd-room.com/object/pasezhdftcdk8iu7,兆基社會住宅🏠友善屋源🧡龍山寺站/雙衛浴/可貓/租補入籍,30000,60000,0,臺北市萬華區大理街,萬華區,大理街,25.0340843,121.4963684,3房2廳2衛2陽台,3,2,2,0,2,3,整層,apt,32.5,5,5,12,2026-07-01,broker,可無火煮食、可養貓、可報稅、可入籍、社會住宅、免仲介費、有陽台、可開伙、租金補貼
wz03d1hfwwz3vycn,https://www.dd-room.com/object/wz03d1hfwwz3vycn,福德國小【超值3房2衛】有陽台★皆有窗★南港公園,27999,55998,0,臺北市南港區成福路,南港區,成福路,25.041876,121.5874763,3房2廳2衛1陽台,3,2,2,0,1,3,整層,apt,28,4,5,12,2026-06-30,broker,可開伙、有陽台
f6idctft6au1gz7m,https://www.dd-room.com/object/f6idctft6au1gz7m,💓中山國小捷運樓中樓/可養貓/台電/短租可談,27500,55000,0,臺北市中山區新生北路二段,中山區,新生北路二段,25.0297486,121.5327247,1房1廳1衛,1,1,1,0,0,1,整層,elevator,11.7,8,12,12,2026-06-30,broker,可無火煮食、可養貓、有電梯、對外窗、垃圾代收、電費照台電、水費照台水、保全設施
jonbshnjb7pi1sxx,https://www.dd-room.com/object/jonbshnjb7pi1sxx,💓新北投捷運站/可租補/可養貓/短租可談/復古風兩房,18500,37000,0,臺北市北投區大業路,北投區,大業路,25.1352964,121.4966738,2房1廳1衛,2,1,1,0,0,2,整層,apt,12,2,4,12,2026-06-30,broker,可無火煮食、可養貓、租金補貼、可報稅、可入籍、對外窗、可養其他寵物
kxjqhpfzkjzz0wps,https://www.dd-room.com/object/kxjqhpfzkjzz0wps,💓西門捷運/西門町近昆明街/電梯套房/可養貓/可短租,14000,28000,0,臺北市萬華區漢口街二段,萬華區,漢口街二段,25.046203,121.5046071,1房1衛,1,0,1,0,0,2,獨立套房,elevator,7,5,11,12,2026-06-30,broker,可無火煮食、可養貓、有電梯
6zr5koo8ozqb6ljh,https://www.dd-room.com/object/6zr5koo8ozqb6ljh,💓中山國小捷運/行天宮捷運/單人採光套房/含水費,8500,17000,0,臺北市中山區新生北路二段,中山區,新生北路二段,25.0297486,121.5327247,1房1衛,1,0,1,0,0,2,獨立套房,apt,4,3,3,12,2026-06-30,broker,對外窗
9cts5l4pkhkxrn0t,https://www.dd-room.com/object/9cts5l4pkhkxrn0t,💓松江南京捷運/吉林路/松江路/可養貓/獨立洗衣機,17500,0,0,臺北市中山區長春路,中山區,長春路,25.0546827,121.5389309,1房1衛,1,0,1,0,0,2,獨立套房,apt,9,3,4,12,2026-06-30,broker,可無火煮食、可養貓、對外窗
dphsdhaqsqbv6djr,https://www.dd-room.com/object/dphsdhaqsqbv6djr,💓秒殺士林/可養貓/可租補/可報稅/台電/短租可談,13000,26000,500,臺北市士林區延平北路五段,士林區,延平北路五段,25.0811652,121.5105537,1房1衛,1,0,1,0,0,2,獨立套房,apt,6,3,5,12,2026-06-30,broker,可無火煮食、可養貓、租金補貼、可報稅、可入籍、對外窗、電費照台電、可養其他寵物
9srhkumdw9yybdqu,https://www.dd-room.com/object/9srhkumdw9yybdqu,南機場2房公寓,28888,56000,0,臺北市中正區中華路二段,中正區,中華路二段,25.0283573,121.5055818,2房1廳1衛,2,1,1,0,0,2,整層,apt,15,5,5,6,2026-06-30,agent,可無火煮食、對外窗、免仲介費
tvau1vg2kjwicvcr,https://www.dd-room.com/object/tvau1vg2kjwicvcr,整層租屋 近國父紀念館站 | 採光通風佳．生活機能完善,38000,76000,0,臺北市大安區光復南路,大安區,光復南路,25.0432029,121.5576586,3房2廳2衛1廚,3,2,2,1,0,3,整層,apt,24.3,5,5,12,2026-06-30,individual,可開伙、對外窗、氣密窗、水泥隔間、免仲介費、電費照台電、水費照台水
g7ouxyudhhcp7z9t,https://www.dd-room.com/object/g7ouxyudhhcp7z9t,海光公園【超值租案】可補助★採光優★低樓層,9999,19998,0,臺北市士林區葫蘆街,士林區,葫蘆街,25.0801826,121.5092364,1房1衛,1,0,1,0,0,2,獨立套房,apt,6,2,3,12,2026-06-29,broker,租金補貼
grouu3w6ex3jzw1h,https://www.dd-room.com/object/grouu3w6ex3jzw1h,台北車站3分【優質租案】可補助★有警衛★電梯,20999,41998,0,臺北市中山區中山北路一段,中山區,中山北路一段,25.0627663,121.5227366,1房1衛,1,0,1,0,0,2,獨立套房,elevator,4,6,12,12,2026-06-29,broker,有電梯、租金補貼
csr5hafx3vabqo0i,https://www.dd-room.com/object/csr5hafx3vabqo0i,民生社區【優質租案】可補助★垃圾代收★採光優,17799,35598,500,臺北市松山區民生東路五段,松山區,民生東路五段,25.0592086,121.568304,1房1衛,1,0,1,0,0,2,獨立套房,apt,7,4,4,12,2026-06-29,broker,垃圾代收、租金補貼
hjxjm9hvzee7aga4,https://www.dd-room.com/object/hjxjm9hvzee7aga4,兆基社宅🏠友善屋源🧡文化大學凱旋苑獨立套房/大床房,8000,16000,800,臺北市士林區凱旋路,士林區,凱旋路,25.1362122,121.5444527,1房1衛1陽台,1,0,1,0,1,2,獨立套房,apt,5.5,1,6,12,2026-06-29,broker,有陽台、租金補貼、可報稅、可入籍、社會住宅、免仲介費
lo3lxmrcgevqwkni,https://www.dd-room.com/object/lo3lxmrcgevqwkni,兆基社會住宅🏠友善屋源🧡北車電梯套房｜大空間｜可租補｜可,22500,45000,1409,臺北市中正區懷寧街,中正區,懷寧街,25.0416309,121.5140395,1房1衛,1,0,1,0,0,2,獨立套房,elevator,11.8,5,9,12,2026-06-29,broker,可無火煮食、可養貓、可報稅、有電梯、可入籍、社會住宅、免仲介費、可開伙、租金補貼
kzn22rr0vkpaacqu,https://www.dd-room.com/object/kzn22rr0vkpaacqu,兆基社會住宅🏠友善屋源🧡南京三民站7分鐘精裝修大三房,75000,150000,1000,臺北市松山區八德路四段,松山區,八德路四段,25.0488403,121.564381,3房2廳2衛1陽台,3,2,2,0,1,3,整層,elevator,39.7,4,7,12,2026-06-29,broker,可無火煮食、可報稅、有電梯、可入籍、社會住宅、免仲介費、有陽台、可開伙、租金補貼
ryhyjd9qtmmwhvva,https://www.dd-room.com/object/ryhyjd9qtmmwhvva,紗幔風情豪華房,26000,26000,0,臺北市中正區博愛路,中正區,博愛路,25.037819,121.5110521,1房1衛,1,0,1,0,0,2,獨立套房,elevator,9,6,9,1,2026-06-29,individual,有飲水機、對外窗、有電梯、水泥隔間、定期清潔
7n8eacabtkcvcus2,https://www.dd-room.com/object/7n8eacabtkcvcus2,近北投家樂福復興高中擁抱大自然套房,9700,19400,0,臺北市北投區大屯路,北投區,大屯路,25.1437697,121.5008212,1房1衛1陽台,1,0,1,0,1,2,獨立套房,house,7,2,3,12,2026-06-28,agent,可無火煮食、對外窗、水泥隔間、保全設施、免仲介費、有陽台、氣密窗
c9cc6oz96ghx3qhc,https://www.dd-room.com/object/c9cc6oz96ghx3qhc,捷運南京復興5分【超值租案】可補助★有電梯★警衛管理,12000,24000,502,臺北市中山區長安東路二段,中山區,長安東路二段,25.0483621,121.5380226,1房1衛,1,0,1,0,0,2,獨立套房,elevator,7,15,16,12,2026-06-28,broker,有電梯、租金補貼
juaibfc2kzc0w28c,https://www.dd-room.com/object/juaibfc2kzc0w28c,捷運劍潭【秒殺租案】可補助★免爬梯★士林商圈,11000,22000,0,臺北市士林區後港街,士林區,後港街,25.0842972,121.5227324,1房1衛,1,0,1,0,0,2,獨立套房,apt,4,1,3,12,2026-06-28,broker,租金補貼
argr9jrxwa4llabp,https://www.dd-room.com/object/argr9jrxwa4llabp,近捷運內湖【優質租案】警衛管理★垃圾代收★大面採光,17999,35998,0,臺北市內湖區星雲街,內湖區,星雲街,25.0804626,121.5960403,1房1衛,1,0,1,0,0,2,獨立套房,elevator,8,19,21,12,2026-06-28,broker,可開伙、有電梯、垃圾代收
ov60qbombxaqb1xx,https://www.dd-room.com/object/ov60qbombxaqb1xx,小南門龍山寺站近南機場夜市！三套房每間都有衛浴歡迎上班族學生合租,14500,29000,500,臺北市中正區莒光路,中正區,莒光路,25.0312536,121.5023741,3房2廳4衛1廚,3,2,4,1,0,2,分租套房,apt,7,1,1,12,2026-06-27,individual,可養貓、可養狗、可養其他寵物、可開伙、對外窗、水泥隔間、免仲介費、電費照台電、水費照台水
qpclrhcv1qxjjiux,https://www.dd-room.com/object/qpclrhcv1qxjjiux,🥇大安MRT｜雙主臥3衛浴｜邊間採光明亮3+1房,90000,180000,3660,臺北市大安區仁愛路四段,大安區,仁愛路四段,25.0366083,121.5511194,4房2廳3衛1廚1陽台,4,2,3,1,1,4,整層,elevator,60,12,17,12,2026-06-27,broker,可開伙、有電梯、水泥隔間、垃圾代收、有陽台、水費照台水、電費照台電、包裹代收
sylukbdbhfov2ukl,https://www.dd-room.com/object/sylukbdbhfov2ukl,免佣）捷運松江南京【超值租案】可補助★可養貓★獨洗衣機,15999,31998,500,臺北市中山區吉林路,中山區,吉林路,25.0500274,121.5300457,1房1衛,1,0,1,0,0,2,獨立套房,apt,4,4,5,12,2026-06-27,broker,可養貓、可養狗、可開伙、租金補貼、免仲介費
zuqahz9kvtopxu4j,https://www.dd-room.com/object/zuqahz9kvtopxu4j,可租補！大安森林公園走1分鐘五套房電梯管理員代收都有,21400,50000,1000,臺北市大安區新生南路三段,大安區,新生南路三段,25.0204782,121.5341183,5房1廳5衛1廚1陽台,5,1,5,1,1,2,分租套房,elevator,6,12,12,12,2026-06-27,individual,對外窗、有電梯、水泥隔間、保全設施、包裹代收、垃圾代收、定期清潔、免仲介費、電費照台電、水費照台水、共生公寓、有陽台、租金補貼、可報稅
cg8suskaxl8shjkj,https://www.dd-room.com/object/cg8suskaxl8shjkj,近福林國小【超值3房2廳】可養寵★報稅★獨立陽台,36000,72000,0,臺北市士林區福志路,士林區,福志路,25.0986515,121.5288651,3房2廳1衛2陽台,3,2,1,0,2,3,整層,apt,32,5,5,12,2026-06-27,broker,可養貓、可養狗、可開伙、有陽台
eleqjjkrs5dasiq6,https://www.dd-room.com/object/eleqjjkrs5dasiq6,捷運中山2分【優質租案】採光佳★衛浴窗★獨立陽台,17199,34398,0,臺北市中山區中山北路二段,中山區,中山北路二段,25.0614803,121.5230193,1房1衛1陽台,1,0,1,0,1,2,獨立套房,apt,8,5,5,12,2026-06-27,broker,有陽台
2a1cqggdh1uzjc67,https://www.dd-room.com/object/2a1cqggdh1uzjc67,捷運中山5分【優質1房1廳】可補助★工作室★警衛管理,23000,46000,2000,臺北市中山區天津街,中山區,天津街,25.0503673,121.5230868,1房1廳1衛,1,1,1,0,0,1,整層,elevator,15,2,9,12,2026-06-27,broker,可開伙、有電梯、租金補貼
w4htyblpji1am7q8,https://www.dd-room.com/object/w4htyblpji1am7q8,中科大【優質３＋１房２衛】可養寵★有陽台★警衛管理,44999,89998,3689,臺北市文山區興隆路三段,文山區,興隆路三段,24.9981483,121.5588495,3房2廳2衛1陽台,3,2,2,0,1,3,整層,elevator,30,2,8,12,2026-06-26,broker,有電梯、有陽台
ajcxzuef86ivyvql,https://www.dd-room.com/object/ajcxzuef86ivyvql,中研院【優質2房1廳】可補助★有警衛★新大樓,34998,69996,1550,臺北市南港區大坑街,南港區,大坑街,25.0472548,121.6168706,2房1廳1衛1陽台,2,1,1,0,1,2,整層,elevator,5,3,12,12,2026-06-26,broker,可開伙、有電梯、有陽台、租金補貼
fkngjp8dq2590q4f,https://www.dd-room.com/object/fkngjp8dq2590q4f,捷運關渡【優質4房2衛】可補助★有陽台★雙層出租,45000,90000,0,臺北市北投區知行路,北投區,知行路,25.1179776,121.4648946,4房2廳2衛2陽台,4,2,2,0,2,4,整層,apt,46,4,5,12,2026-06-26,broker,可開伙、有陽台、租金補貼
zuktrlo1dz7kftge,https://www.dd-room.com/object/zuktrlo1dz7kftge,近捷運國父紀念館【優質1房1廳】可補助★有陽台★警衛管理,49799,99598,4783,臺北市信義區光復南路,信義區,光復南路,25.0403539,121.5577107,1房1廳1衛1陽台,1,1,1,0,1,1,整層,elevator,12,5,9,12,2026-06-26,broker,可開伙、有電梯、有陽台、租金補貼
foyiid8addkjkrwa,https://www.dd-room.com/object/foyiid8addkjkrwa,捷運台大醫院5分【優質租案】洗衣機★有陽台★垃圾代收,22999,45998,0,臺北市中正區衡陽路,中正區,衡陽路,25.0422859,121.512356,1房1衛1陽台,1,0,1,0,1,2,獨立套房,elevator,10,3,6,12,2026-06-26,broker,有電梯、垃圾代收、有陽台
hsahqmzruzqvteyq,https://www.dd-room.com/object/hsahqmzruzqvteyq,復興崗站三房美寓(可租屋補助),34000,68000,0,臺北市北投區新興路,北投區,新興路,25.1407088,121.488389,3房2廳1衛1廚2陽台,3,2,1,1,2,3,整層,apt,27.7,4,4,12,2026-06-25,broker,可無火煮食、對外窗、水泥隔間、有陽台、水費照台水、電費照台電、租金補貼
bbejykfcmrh3zgdv,https://www.dd-room.com/object/bbejykfcmrh3zgdv,近捷運古亭【超值1房1廳】附冷氣★衛浴開窗★師大首選,19997,39994,0,臺北市大安區金山南路二段,大安區,金山南路二段,25.0278817,121.5261748,1房1廳1衛,1,1,1,0,0,1,整層,apt,4,1,5,12,2026-06-25,broker,
ynj91u62i5bnzsfe,https://www.dd-room.com/object/ynj91u62i5bnzsfe,近台電大樓師大台大月租起包水電免押金,8000,0,0,臺北市大安區泰順街,大安區,泰順街,25.0250271,121.5314639,3房1廳2衛1廚1陽台,3,1,2,1,1,2,雅房,apt,4,2,5,1,2026-06-25,agent,共生公寓、可開伙、有陽台、租金補貼、可報稅、有飲水機、水泥隔間、免仲介費、對外窗、定期清潔
anfrxlb3kmj1dwvn,https://www.dd-room.com/object/anfrxlb3kmj1dwvn,近捷運國父紀念館【優質租案】精緻裝潢★乾溼分離★松菸文創,24999,49998,0,臺北市大安區延吉街,大安區,延吉街,25.0335105,121.557167,1房1衛,1,0,1,0,0,2,獨立套房,elevator,6,3,7,12,2026-06-25,broker,有電梯
87hbnlguvodj0gyj,https://www.dd-room.com/object/87hbnlguvodj0gyj,天母新光三越旁｜6坪套房｜房東自租免仲介費｜2樓生活機能佳,15000,30000,0,臺北市士林區天母東路,士林區,天母東路,25.118193,121.5367728,1房1衛,1,0,1,0,0,2,分租套房,apt,6,2,5,6,2026-06-25,individual,對外窗、免仲介費、電費照台電、垃圾代收
wibjtpepnepwiu7t,https://www.dd-room.com/object/wibjtpepnepwiu7t,兆基社會住宅🏠友善屋源🧡文化大學凱旋苑獨立套房/雙床房,8000,0,800,臺北市士林區凱旋路,士林區,凱旋路,25.1362122,121.5444527,1房1衛1陽台,1,0,1,0,1,2,獨立套房,apt,5.5,3,5,12,2026-06-25,broker,有陽台、租金補貼、可報稅、可入籍、社會住宅、免仲介費
fvgt3zxeqonbopwn,https://www.dd-room.com/object/fvgt3zxeqonbopwn,兆基社會住宅🏡優質電梯大樓拎包入住套房可租補,14500,29000,1440,臺北市中山區南京西路,中山區,南京西路,25.0525017,121.5213531,1房1衛,1,0,1,0,0,2,獨立套房,elevator,6.5,11,12,12,2026-06-25,broker,可報稅、有電梯、可入籍、社會住宅、免仲介費、租金補貼
muz2sisvwihjl5dl,https://www.dd-room.com/object/muz2sisvwihjl5dl,兆基社會住宅🏠友善屋源🧡可租補/免爬梯/屋齡新/獨立套房,21000,42000,2462,臺北市北投區新民路,北投區,新民路,25.1407075,121.5121604,1房1衛,1,0,1,0,0,2,獨立套房,elevator,11.7,3,5,12,2026-06-25,broker,可無火煮食、可報稅、有電梯、可入籍、社會住宅、免仲介費、可開伙、租金補貼
vyxqeqhzbl6e7ald,https://www.dd-room.com/object/vyxqeqhzbl6e7ald,兆基社會住宅🏠友善屋源❤️社宅/雙租補/文化大學/台水電,8000,16000,0,臺北市士林區格致路,士林區,格致路,25.1373025,121.5464602,1房1廳,1,1,0,0,0,2,獨立套房,elevator,8.4,5,5,12,2026-06-25,broker,有電梯、可無火煮食、免仲介費、社會住宅、租金補貼、可報稅、可入籍、可開伙
kzpdnuhbhspjjnkn,https://www.dd-room.com/object/kzpdnuhbhspjjnkn,兆基社會住宅🏠友善屋源🧡超值小套房/可租金補貼/有電梯,8000,16000,0,臺北市士林區格致路,士林區,格致路,25.1373025,121.5464602,1房1衛,1,0,1,0,0,2,獨立套房,elevator,8.2,3,5,12,2026-06-25,broker,可無火煮食、租金補貼、可報稅、有電梯、可入籍、社會住宅、免仲介費、可開伙
ja3crbf9edpxeqsb,https://www.dd-room.com/object/ja3crbf9edpxeqsb,兆基社會住宅🏠友善屋源🧡六張犁站/可祭祀/3+1房/可租,39000,78000,0,臺北市大安區臥龍街,大安區,臥龍街,25.0109102,121.5639627,4房2廳1衛1陽台,4,2,1,0,1,4,整層,apt,24.3,4,4,12,2026-06-25,broker,可無火煮食、可報稅、可入籍、社會住宅、免仲介費、有陽台、租金補貼、可開伙
u2wvbe4vj41cpl4d,https://www.dd-room.com/object/u2wvbe4vj41cpl4d,兆基社會住宅🏠友善屋源🧡政大一房一廳/可養寵/可租補/免,22000,44000,0,臺北市文山區新光路一段,文山區,新光路一段,24.9931685,121.5737794,1房1衛,1,0,1,0,0,2,獨立套房,apt,9.4,2,5,12,2026-06-25,broker,可無火煮食、可養貓、可報稅、可入籍、社會住宅、免仲介費、租金補貼、可開伙
dkkyigob4y7aurm3,https://www.dd-room.com/object/dkkyigob4y7aurm3,💓台北車站捷運採光平價套房/可養貓咪/採光棒/獨立洗衣機,13000,26000,0,臺北市中正區漢口街一段,中正區,漢口街一段,25.0451622,121.5103767,1房1衛,1,0,1,0,0,2,獨立套房,apt,7,6,5,12,2026-06-25,broker,可無火煮食、可養貓、對外窗
yplryxhtke1kauuj,https://www.dd-room.com/object/yplryxhtke1kauuj,💓秒殺⚡️內湖近南港昆陽/電梯管理/景觀採光套房,19000,38000,1500,臺北市內湖區新明路,內湖區,新明路,25.0584583,121.588039,1房1衛,1,0,1,0,0,2,獨立套房,elevator,10,9,13,12,2026-06-25,broker,可無火煮食、有電梯、對外窗、保全設施、垃圾代收
9rmriyeossoee2uz,https://www.dd-room.com/object/9rmriyeossoee2uz,💓台大醫院捷運/西門捷運/可養寵物🐱電梯套房/可租補,16800,33600,0,臺北市中正區衡陽路,中正區,衡陽路,25.0422859,121.512356,1房1衛,1,0,1,0,0,2,獨立套房,elevator,8,3,5,12,2026-06-25,broker,可無火煮食、可養貓、租金補貼、可報稅、有電梯、可入籍、對外窗、可養其他寵物
xp3icp5g2zkkbxkj,https://www.dd-room.com/object/xp3icp5g2zkkbxkj,💓雙連捷運站/電梯管理三陽台3房/代收包裹/二樓可站立,43000,86000,3252,臺北市中山區中山北路二段,中山區,中山北路二段,25.0614803,121.5230193,3房2廳1衛3陽台,3,2,1,0,3,3,整層,elevator,32.6,3,14,12,2026-06-25,broker,可無火煮食、有電梯、有陽台、可開伙、對外窗、包裹代收、保全設施、電費照台電、水費照台水
hxoj0eimx8hekgtz,https://www.dd-room.com/object/hxoj0eimx8hekgtz,💓忠孝新生捷運/善導寺捷運🔥可租補/採光雅房/可養貓,10000,20000,0,臺北市中正區忠孝東路二段,中正區,忠孝東路二段,25.0425436,121.531746,1房,1,0,0,0,0,1,雅房,apt,6,2,5,12,2026-06-25,broker,可無火煮食、可養貓、租金補貼、可報稅、可入籍、對外窗
94dhxo3lupqblax2,https://www.dd-room.com/object/94dhxo3lupqblax2,💓士林運動中心/採光/可養寵物/可報稅入戶,6500,13000,0,臺北市士林區承德路四段,士林區,承德路四段,25.0902764,121.5173712,1房,1,0,0,0,0,1,雅房,apt,4,3,5,12,2026-06-25,broker,可無火煮食、可養貓、可報稅、可入籍、對外窗
e6spguklx1hfdm47,https://www.dd-room.com/object/e6spguklx1hfdm47,💓西門捷運電梯套房可租補/可貓/短租可談,16800,33600,0,臺北市中正區衡陽路,中正區,衡陽路,25.0422859,121.512356,1房1衛,1,0,1,0,0,2,獨立套房,elevator,8,4,5,3,2026-06-25,broker,可無火煮食、可養貓、租金補貼、可報稅、有電梯、可入籍、對外窗、可養其他寵物
baxln9kij0hnxvn6,https://www.dd-room.com/object/baxln9kij0hnxvn6,💓新北投捷運/無採光大套房/可養貓咪/可租補/短租可談,12500,25000,0,臺北市北投區大業路,北投區,大業路,25.1352964,121.4966738,1房1衛,1,0,1,0,0,2,獨立套房,apt,8,2,4,12,2026-06-25,broker,可無火煮食、可養貓、租金補貼、可報稅、可入籍、可養其他寵物
jtwearuqej4rqb2z,https://www.dd-room.com/object/jtwearuqej4rqb2z,💓松江南京捷運/近吉林路/可養貓咪/套房/獨洗/短租可談,17500,35000,0,臺北市中山區長春路,中山區,長春路,25.0546827,121.5389309,1房1衛,1,0,1,0,0,2,獨立套房,apt,8,3,4,12,2026-06-25,broker,可無火煮食、可養貓、可報稅、可入籍、對外窗
adhddikbm6x7esb6,https://www.dd-room.com/object/adhddikbm6x7esb6,💓新北投電梯單人套房/可養貓/可租補/走道窗,7600,15200,0,臺北市北投區中和街,北投區,中和街,25.1405111,121.5002439,1房1衛,1,0,1,0,0,2,獨立套房,elevator,4,3,5,12,2026-06-25,broker,可無火煮食、可養貓、租金補貼、可報稅、有電梯、可入籍、可養其他寵物
fmz6ygmsiwgnlbrb,https://www.dd-room.com/object/fmz6ygmsiwgnlbrb,💓內湖近南港昆陽/電梯管理/山河景觀宅高樓套房,18000,36000,1500,臺北市內湖區新明路,內湖區,新明路,25.0584583,121.588039,1房1衛,1,0,1,0,0,2,獨立套房,elevator,7,9,13,12,2026-06-25,broker,可無火煮食、有電梯、對外窗、保全設施、垃圾代收
e45pt7sxgawstvx0,https://www.dd-room.com/object/e45pt7sxgawstvx0,可租補！永春捷運站一號出口，一年新裝修套房，出入方便，不用爬樓梯！,23000,46000,0,臺北市信義區虎林街,信義區,虎林街,25.0371893,121.5772788,1房1衛,1,0,1,0,0,2,分租套房,house,6,1,4,12,2026-06-25,broker,對外窗、垃圾代收、租金補貼
69p60lt7lzwvtfuz,https://www.dd-room.com/object/69p60lt7lzwvtfuz,優質管理★24小時保全★泳池社區三房,56000,112000,6050,臺北市士林區延平北路六段,士林區,延平北路六段,25.0874449,121.5090499,3房2廳2衛1廚1陽台,3,2,2,1,1,3,整層,elevator,53.7,11,11,12,2026-06-24,broker,可開伙、水泥隔間、有電梯、氣密窗、對外窗、垃圾代收、包裹代收、有陽台、水費照台水、電費照台電
bs97fvicw9edgxwv,https://www.dd-room.com/object/bs97fvicw9edgxwv,內湖區.捷運東湖站.共生宅.溫馨風設計感雅房502,10888,21774,0,臺北市內湖區安康路,內湖區,安康路,25.0647734,121.6089867,1房1衛1廚1陽台,1,0,1,1,1,2,分租套房,apt,6,5,5,12,2026-06-24,escrow,可無火煮食、對外窗、氣密窗、水泥隔間、租金補貼、有陽台
mxcsp9yxza2xkiuq,https://www.dd-room.com/object/mxcsp9yxza2xkiuq,台北車站3分【優質租案】可補助★有警衛★採光優,19000,38000,0,臺北市中山區中山北路一段,中山區,中山北路一段,25.0627663,121.5227366,1房1衛,1,0,1,0,0,2,獨立套房,elevator,5,6,12,12,2026-06-24,broker,有電梯、租金補貼
4sfuxm2b6l8jar5k,https://www.dd-room.com/object/4sfuxm2b6l8jar5k,捷運台電大樓【超值租案】大空間★有陽台★大面採光,16499,32998,500,臺北市大安區泰順街,大安區,泰順街,25.0250271,121.5314639,1房1衛1陽台,1,0,1,0,1,2,獨立套房,apt,6,3,4,12,2026-06-24,broker,有陽台
ntvfpplbktcuo2gv,https://www.dd-room.com/object/ntvfpplbktcuo2gv,捷運大安3分【精緻2房1廳】可補助★垃圾代收★警衛管理,28587,57174,300,臺北市大安區信義路四段,大安區,信義路四段,25.0332246,121.5472642,2房1廳1衛,2,1,1,0,0,2,整層,apt,10,2,6,12,2026-06-24,broker,可養貓、可養狗、可開伙、垃圾代收、租金補貼
tnfbuzgwopolwmej,https://www.dd-room.com/object/tnfbuzgwopolwmej,捷運明德4分【優質租案】採光優★大空間★獨立衛浴,17999,35998,0,臺北市北投區致遠一路,北投區,致遠一路,25.0858622,121.3708878,1房1衛,1,0,1,0,0,2,獨立套房,apt,13,3,5,12,2026-06-24,broker,
ec2wxdse83vmmtff,https://www.dd-room.com/object/ec2wxdse83vmmtff,捷運南京復興5分【秒殺租案】可補助★景觀戶★有警衛,15999,31998,1500,臺北市松山區長安東路,松山區,長安東路,24.1578702,120.733752,1房1衛,1,0,1,0,0,2,獨立套房,elevator,5,10,12,12,2026-06-24,broker,有電梯、租金補貼
j0bvn1ed3fiq1b7r,https://www.dd-room.com/object/j0bvn1ed3fiq1b7r,捷運中山2分【超值租案】採光優★低樓層★精緻裝潢,14999,29998,0,臺北市中山區南京西路,中山區,南京西路,25.0525017,121.5213531,1房1衛,1,0,1,0,0,2,獨立套房,apt,4,3,3,12,2026-06-24,broker,
1mlxsm3rrw9e74vh,https://www.dd-room.com/object/1mlxsm3rrw9e74vh,捷運世貿2分【景觀3房2衛】可寵★可營登★一層2戶,88999,177998,3500,臺北市信義區松勤街,信義區,松勤街,25.0319783,121.5647971,3房2廳2衛2陽台,3,2,2,0,2,3,整層,elevator,51,6,8,12,2026-06-24,broker,可養貓、可養狗、可開伙、有電梯、有陽台
qx7i2vivvphwwngj,https://www.dd-room.com/object/qx7i2vivvphwwngj,免佣）捷運科技大樓1分【超值租案】採光優★傢俱齊★北教大,12999,25998,0,臺北市大安區復興南路二段,大安區,復興南路二段,25.0242174,121.5433511,1房1衛,1,0,1,0,0,2,獨立套房,apt,7,4,4,12,2026-06-24,broker,免仲介費
9celc4vxcdna7pj3,https://www.dd-room.com/object/9celc4vxcdna7pj3,民生社區【優質租案】獨洗衣機★垃圾代收★採光優,17999,35998,0,臺北市松山區民生東路五段,松山區,民生東路五段,25.0592086,121.568304,1房1衛,1,0,1,0,0,2,獨立套房,apt,5,4,4,12,2026-06-24,broker,可開伙、垃圾代收
w74awkqju3swciid,https://www.dd-room.com/object/w74awkqju3swciid,捷運大安3分【精緻2房1廳】可補助★新裝潢★警衛管理,28500,57000,303,臺北市大安區信義路四段,大安區,信義路四段,25.0332246,121.5472642,2房1廳1衛,2,1,1,0,0,2,整層,apt,13,2,6,12,2026-06-24,broker,可開伙、租金補貼
cxxmnmuk5pe8humq,https://www.dd-room.com/object/cxxmnmuk5pe8humq,近捷運信義安和【優質電梯】小廚房★有陽台★警衛管理,34000,68000,1910,臺北市大安區敦化南路二段,大安區,敦化南路二段,25.0333105,121.5490456,1房1衛1陽台,1,0,1,0,1,2,獨立套房,elevator,12,8,16,12,2026-06-24,broker,可開伙、有電梯、有陽台
aplzhyrz1f47kzsc,https://www.dd-room.com/object/aplzhyrz1f47kzsc,私人花園魚池 超大雙車位 頂級豪宅,74800,149600,0,臺北市士林區磺溪街,士林區,磺溪街,25.1072381,121.5230808,4房2廳2衛1廚1陽台,4,2,2,1,1,4,整層,apt,75,1,4,12,2026-06-24,broker,可開伙、對外窗、水泥隔間、水費照台水、電費照台電、有陽台
a2sldzmlrf6c7qaj,https://www.dd-room.com/object/a2sldzmlrf6c7qaj,北投站◎高樓景觀二房,65000,130000,2640,臺北市北投區大業路,北投區,大業路,25.1352964,121.4966738,2房1廳1衛1廚1陽台,2,1,1,1,1,2,整層,elevator,24,21,24,12,2026-06-24,broker,對外窗、氣密窗、有電梯、可無火煮食、垃圾代收、包裹代收、水費照台水、電費照台電、有陽台、水泥隔間
bvtlelc3dndehr1u,https://www.dd-room.com/object/bvtlelc3dndehr1u,寧靜庭院社區◎東吳大學◎3+1房,63000,126000,5640,臺北市士林區至善路二段,士林區,至善路二段,25.110942,121.5576946,4房2廳2衛1廚1陽台,4,2,2,1,1,4,整層,elevator,53,3,7,12,2026-06-24,broker,可開伙、水泥隔間、有電梯、氣密窗、對外窗、垃圾代收、包裹代收、水費照台水、電費照台電、有陽台
61zwdxmzveoa80fj,https://www.dd-room.com/object/61zwdxmzveoa80fj,天母東和公園●電梯三房,38000,76000,1060,臺北市士林區中山北路七段,士林區,中山北路七段,25.1208556,121.5313422,3房2廳2衛1廚2陽台,3,2,2,1,2,3,整層,elevator,46,3,6,12,2026-06-24,broker,可開伙、水泥隔間、有電梯、對外窗、有陽台、水費照台水、電費照台電
3lcspr8szynhlzdb,https://www.dd-room.com/object/3lcspr8szynhlzdb,奇岩站●景觀高樓層,40000,80000,3600,臺北市北投區中央南路二段,北投區,中央南路二段,25.124174,121.5002337,2房1廳2衛1廚2陽台,2,1,2,1,2,2,整層,elevator,30.8,14,19,12,2026-06-24,broker,可無火煮食、氣密窗、有電梯、水泥隔間、垃圾代收、包裹代收、水費照台水、電費照台電、可報稅、有陽台、對外窗
cjxrqjmarikahiql,https://www.dd-room.com/object/cjxrqjmarikahiql,陽明山優質社區泳池別墅,180000,360000,10000,臺北市士林區莊頂路,士林區,莊頂路,25.1100802,121.5525324,6房3廳4衛1廚2陽台,6,3,4,1,2,6,整層,villa,148,999,2,12,2026-06-24,broker,可養狗、可養貓、可開伙、可養其他寵物、水泥隔間、對外窗、包裹代收、垃圾代收、電費照台電、水費照台水、有陽台
jnmxcwrj1ghlh0cn,https://www.dd-room.com/object/jnmxcwrj1ghlh0cn,電梯別墅◆社區中庭泳池,158000,316000,10450,臺北市內湖區民權東路六段,內湖區,民權東路六段,25.0667578,121.5995109,6房2廳5衛1廚5陽台,6,2,5,1,5,6,整層,house,87,999,4,12,2026-06-24,broker,可開伙、水泥隔間、有電梯、對外窗、氣密窗、垃圾代收、包裹代收、水費照台水、電費照台電、有陽台
y5tqv2ib40sph0p9,https://www.dd-room.com/object/y5tqv2ib40sph0p9,AIT特區◆電梯別墅,188800,377600,20000,臺北市內湖區民權東路六段,內湖區,民權東路六段,25.0667578,121.5995109,6房4廳6衛1廚6陽台,6,4,6,1,6,6,整層,villa,154,999,4,24,2026-06-24,broker,可開伙、水泥隔間、有電梯、對外窗、垃圾代收、包裹代收、水費照台水、電費照台電、有陽台
mjvrbjyseqxysmnv,https://www.dd-room.com/object/mjvrbjyseqxysmnv,陽明山●獨門獨院●泳池別墅,138000,276000,0,臺北市士林區永公路,士林區,永公路,25.1367946,121.5671248,5房3廳4衛1廚3陽台,5,3,4,1,3,5,整層,villa,106,999,2,24,2026-06-24,broker,可養貓、可養狗、可養其他寵物、可開伙、水泥隔間、對外窗、水費照台水、電費照台電、有陽台
3by8tkvgupcybwsx,https://www.dd-room.com/object/3by8tkvgupcybwsx,榮總/振興/天母商圈★一層一戶★露臺二房,80000,160000,6000,臺北市北投區石牌路二段,北投區,石牌路二段,25.1187161,121.5206429,2房2廳2衛1廚1陽台,2,2,2,1,1,2,整層,elevator,63.3,6,6,12,2026-06-24,broker,對外窗、保全設施、垃圾代收、水費照台水、電費照台電、有電梯、水泥隔間、可開伙、有陽台、可報稅
2xmdwiyckwjdj8hg,https://www.dd-room.com/object/2xmdwiyckwjdj8hg,@@忠孝新生仁愛商圈旁*典雅明亮三房,59825,119650,3675,臺北市大安區新生南路一段,大安區,新生南路一段,25.0439132,121.5329886,3房2廳2衛2陽台,3,2,2,0,2,3,整層,elevator,43.1,4,7,12,2026-06-23,broker,對外窗、有電梯、水泥隔間、可開伙
1f1wkfos0rsy3x6c,https://www.dd-room.com/object/1f1wkfos0rsy3x6c,萬壽橋【超值雅房】對外窗★政大首選,5500,11000,0,臺北市文山區新光路一段,文山區,新光路一段,24.9931685,121.5737794,10房1廳10陽台,10,1,0,0,10,2,獨立套房,apt,3,4,5,12,2026-06-23,broker,可養貓、可養狗、可開伙、有陽台
33nicgldbjtf8kdp,https://www.dd-room.com/object/33nicgldbjtf8kdp,景美女中【超值3房2衛】附冷氣★房皆有窗★木新商圈,28999,57998,0,臺北市文山區忠順街一段,文山區,忠順街一段,24.983933,121.5581442,3房2廳2衛2陽台,3,2,2,0,2,3,整層,apt,18,3,4,12,2026-06-23,broker,可開伙、有陽台
7cwuelhmnanovxo5,https://www.dd-room.com/object/7cwuelhmnanovxo5,近捷運古亭【秒殺租案】獨立陽台★附浴缸★大空間,11699,23398,300,臺北市中正區廈門街,中正區,廈門街,25.026447,121.5178804,1房1衛1陽台,1,0,1,0,1,2,獨立套房,apt,7,5,5,12,2026-06-23,broker,有陽台
cirdfzl8em5ozzje,https://www.dd-room.com/object/cirdfzl8em5ozzje,近捷運市政府【優質電梯】短租洽★精緻裝潢★垃圾代收,19999,39998,0,臺北市信義區基隆路一段,信義區,基隆路一段,25.0486217,121.5687628,1房1衛,1,0,1,0,0,2,獨立套房,elevator,4,2,11,12,2026-06-23,broker,有電梯、垃圾代收
cb9d1m9idx8cxv0i,https://www.dd-room.com/object/cb9d1m9idx8cxv0i,近捷運台電大樓【優質租案】可補助★獨洗衣機★雙面採光,18800,37600,0,臺北市大安區泰順街,大安區,泰順街,25.0250271,121.5314639,1房1衛,1,0,1,0,0,2,獨立套房,apt,13,6,6,12,2026-06-23,broker,租金補貼
vjwyipilskpnyrvb,https://www.dd-room.com/object/vjwyipilskpnyrvb,兆基社會住宅🏠友善屋源🧡文化大學凱旋苑獨立套房/雙床房,8000,16000,800,臺北市士林區凱旋路,士林區,凱旋路,25.1362122,121.5444527,1房1衛1陽台,1,0,1,0,1,2,獨立套房,apt,5.5,3,5,12,2026-06-23,broker,可養貓、有陽台、租金補貼、可報稅、可入籍、社會住宅、免仲介費
artl1sgvwpryv2kg,https://www.dd-room.com/object/artl1sgvwpryv2kg,兆基社會住宅🏠友善屋源🧡近忠孝新生/杭州御品精美獨立套房,24500,49000,1479,臺北市中正區濟南路二段,中正區,濟南路二段,25.040416,121.5309804,1房1衛1陽台,1,0,1,0,1,2,獨立套房,elevator,9.5,8,10,12,2026-06-23,broker,可無火煮食、可報稅、有電梯、有陽台、可入籍、社會住宅、免仲介費、可開伙、租金補貼
utu4mbwqwqkds37o,https://www.dd-room.com/object/utu4mbwqwqkds37o,古亭站雅房A,11500,23000,0,臺北市中正區同安街,中正區,同安街,25.0245245,121.5220233,1房,1,0,0,0,0,2,分租套房,apt,2,4,5,1,2026-06-23,agent,可開伙、對外窗、水泥隔間、免仲介費
4gumrsyst8reylkg,https://www.dd-room.com/object/4gumrsyst8reylkg,南機場夜市萬華站7分鐘！四套房（每間都有廁所）歡迎學生上班族合租,56000,112000,0,臺北市中正區莒光路,中正區,莒光路,25.0312536,121.5023741,4房2廳4衛1廚,4,2,4,1,0,5~6,整層,house,32,1,1,12,2026-06-23,individual,可養貓、可養狗、可養其他寵物、可開伙、對外窗、水泥隔間、免仲介費、電費照台電、水費照台水
xrne2ztszadhi4vp,https://www.dd-room.com/object/xrne2ztszadhi4vp,北醫雅房,10000,20000,0,臺北市信義區吳興街,信義區,吳興街,25.0251064,121.5670694,3房1廳1衛1廚2陽台,3,1,1,1,2,1,雅房,apt,3,4,5,12,2026-06-22,agent,可開伙、對外窗、免仲介費、有陽台、租金補貼、電費照台電、水費照台水、水泥隔間
zsxmyd8wvkrcfrjn,https://www.dd-room.com/object/zsxmyd8wvkrcfrjn,北醫生活圈，安靜，便利,11500,23000,0,臺北市信義區吳興街,信義區,吳興街,25.0251064,121.5670694,1房1衛,1,0,1,0,0,2,獨立套房,apt,5,1,5,12,2026-06-22,broker,可養貓、可養狗
gertiwbqlicuwhn3,https://www.dd-room.com/object/gertiwbqlicuwhn3,古亭雙捷運3房｜免仲介費可租補,29500,59000,0,臺北市中正區重慶南路三段,中正區,重慶南路三段,25.0264198,121.5162317,3房2廳1衛1廚,3,2,1,1,0,2,整層,apt,25,5,5,12,2026-06-22,individual,可開伙、對外窗、水泥隔間、免仲介費、電費照台電、水費照台水、租金補貼
hf0s29xzslsifn87,https://www.dd-room.com/object/hf0s29xzslsifn87,捷運行天宮3分【超值雅房】限女性★精緻裝潢★低樓層,12000,24000,1000,臺北市中山區農安街,中山區,農安街,25.0646817,121.5349909,1房1廳1衛1陽台,1,1,1,0,1,2,獨立套房,apt,4,2,5,12,2026-06-22,broker,可養貓、可養狗、可開伙、有陽台
zdz3dyqm5nlwni8q,https://www.dd-room.com/object/zdz3dyqm5nlwni8q,捷運士林站【超值租案】可報稅★大面採光★女性首選,10499,20998,1500,臺北市士林區文林路,士林區,文林路,25.1034787,121.5194153,1房1衛,1,0,1,0,0,2,獨立套房,apt,5,4,4,12,2026-06-22,broker,
gjlc83gp3vsdd3cr,https://www.dd-room.com/object/gjlc83gp3vsdd3cr,兆基社會住宅🏡友善屋源❤️中正區廈門街.採光美三房.可租補,35000,70000,0,臺北市中正區廈門街,中正區,廈門街,25.026447,121.5178804,3房2廳2衛1陽台,3,2,2,0,1,3,整層,apt,34.1,4,4,12,2026-06-22,broker,可無火煮食、可報稅、可入籍、社會住宅、免仲介費、有陽台、可開伙、租金補貼
ngezugsrrla6qokv,https://www.dd-room.com/object/ngezugsrrla6qokv,@@信義安和臨江商圈旁*精美質感機能美宅,74999,149998,3100,臺北市大安區光復南路,大安區,光復南路,25.0432029,121.5576586,2房2廳1衛2陽台,2,2,1,0,2,2,整層,elevator,30.7,12,14,12,2026-06-22,broker,對外窗、有電梯、水泥隔間
2ktpt2nxsbc2otsv,https://www.dd-room.com/object/2ktpt2nxsbc2otsv,@@六張犁臨江商圈旁*樹海林蔭高生活機能宅,64999,129998,5000,臺北市大安區敦化南路二段,大安區,敦化南路二段,25.0333105,121.5490456,3房2廳2衛1陽台,3,2,2,0,1,3,整層,elevator,41.2,5,7,12,2026-06-22,broker,對外窗、有電梯、水泥隔間
63waruwwldqwcqm6,https://www.dd-room.com/object/63waruwwldqwcqm6,@@信義世貿國父紀念館旁*溫馨明亮美兩房,55999,111998,3020,臺北市信義區光復南路,信義區,光復南路,25.0403539,121.5577107,2房1廳1衛1陽台,2,1,1,0,1,2,整層,elevator,25.2,10,15,12,2026-06-22,broker,對外窗、有電梯、可開伙、水泥隔間
35q8lhkcokabhjsz,https://www.dd-room.com/object/35q8lhkcokabhjsz,@@天母石牌明德商圈旁*高樓景觀簡約三房,144999,290000,0,臺北市士林區中山北路六段,士林區,中山北路六段,25.1032702,121.5250883,3房2廳3衛2陽台,3,2,3,0,2,3,整層,elevator,30,10,14,12,2026-06-22,broker,可開伙、有電梯、對外窗、有陽台
rxpmkrhtmhect29i,https://www.dd-room.com/object/rxpmkrhtmhect29i,@@天母石牌明德商圈旁*高樓景觀全新三房,160000,320000,0,臺北市士林區中山北路六段,士林區,中山北路六段,25.1032702,121.5250883,3房2廳3衛2陽台,3,2,3,0,2,3,整層,elevator,79.4,10,14,12,2026-06-22,broker,可開伙、有電梯、對外窗、有陽台
cuhbblrcdhvgnlfs,https://www.dd-room.com/object/cuhbblrcdhvgnlfs,@@信義安和臨江商圈旁*優質機能簡約明亮宅,78999,157998,1250,臺北市大安區信義路四段,大安區,信義路四段,25.0332246,121.5472642,4房2廳2衛2陽台,4,2,2,0,2,4,整層,elevator,42.4,5,6,12,2026-06-22,broker,對外窗、有電梯、水泥隔間
rqzlygrbgexjvshu,https://www.dd-room.com/object/rqzlygrbgexjvshu,@@天母石牌明德商圈旁*溫馨裝潢美居,69999,140000,4000,臺北市士林區士東路,士林區,士東路,25.1129284,121.5352283,3房2廳2衛2陽台,3,2,2,0,2,3,整層,elevator,44.3,7,7,12,2026-06-22,broker,可開伙、有電梯、水泥隔間、對外窗、有陽台
wbgyretb7oqtpsiw,https://www.dd-room.com/object/wbgyretb7oqtpsiw,@@忠孝復興SOGO商圈旁*優質庭院一樓,100000,200000,1400,臺北市大安區仁愛路三段,大安區,仁愛路三段,25.037748,121.533251,4房2廳3衛2陽台,4,2,3,0,2,4,整層,elevator,47.6,1,7,12,2026-06-22,broker,可開伙、有電梯、對外窗、有陽台
hyaewb5mpwhpsqa8,https://www.dd-room.com/object/hyaewb5mpwhpsqa8,@@古亭東門捷運商圈旁*採光明亮美居,37999,75998,0,臺北市大安區金山南路二段,大安區,金山南路二段,25.0278817,121.5261748,2房2廳1衛1陽台,2,2,1,0,1,2,整層,apt,26,4,2,12,2026-06-22,broker,可開伙、對外窗、有陽台
flyrmwbjtmaterjq,https://www.dd-room.com/object/flyrmwbjtmaterjq,@@天母芝山SOGO商圈*採光明亮三房,158000,316000,0,臺北市士林區中山北路六段,士林區,中山北路六段,25.1032702,121.5250883,3房2廳3衛2陽台,3,2,3,0,2,3,整層,elevator,72.2,8,21,12,2026-06-22,broker,可開伙、有電梯、對外窗、有陽台
05xsd3wjjefs1i1h,https://www.dd-room.com/object/05xsd3wjjefs1i1h,@@天母石牌明德商圈旁*高樓景觀高品味三房,160000,320000,0,臺北市士林區中山北路六段,士林區,中山北路六段,25.1032702,121.5250883,3房2廳3衛2陽台,3,2,3,0,2,3,整層,elevator,66,10,14,12,2026-06-22,broker,可開伙、有電梯、對外窗、有陽台
cewvwrq79eiqnklv,https://www.dd-room.com/object/cewvwrq79eiqnklv,@@內湖大湖公園AIT旁*質感裝潢美居,97999,195998,6002,臺北市內湖區金湖路,內湖區,金湖路,25.0837687,121.5954124,4房2廳2衛1陽台,4,2,2,0,1,4,整層,elevator,60.9,7,14,12,2026-06-22,broker,對外窗、有電梯、水泥隔間
kuvtccj27evhkhtp,https://www.dd-room.com/object/kuvtccj27evhkhtp,@@忠孝復興SOGO商圈旁*高樓景觀套房,14000,28000,0,臺北市大安區復興南路一段,大安區,復興南路一段,25.0433313,121.5438915,1房1廳1衛,1,1,1,0,0,2,獨立套房,elevator,6,12,12,12,2026-06-22,broker,可開伙、有電梯、水泥隔間、對外窗
qrewgebjjwraywti,https://www.dd-room.com/object/qrewgebjjwraywti,@@六張犁捷運商圈旁*採光明亮溫馨宅,99999,200000,4500,臺北市大安區通化街,大安區,通化街,25.0287281,121.5538123,3房1廳2衛2陽台,3,1,2,0,2,3,整層,elevator,65,6,7,12,2026-06-22,broker,可開伙、有電梯、對外窗、有陽台
yogcgfotwp8zdyyy,https://www.dd-room.com/object/yogcgfotwp8zdyyy,@@大安東門永康商圈旁*溫馨明亮美四房,78888,158000,1200,臺北市大安區永康街,大安區,永康街,25.0324642,121.5297302,4房3廳3衛,4,3,3,0,0,4,整層,elevator,72.8,7,7,12,2026-06-22,broker,可開伙、有電梯、對外窗
xyhicezfvzlwet7g,https://www.dd-room.com/object/xyhicezfvzlwet7g,@@天母芝山SOGO商圈旁*清新明亮美居,189999,380000,0,臺北市士林區德行東路,士林區,德行東路,25.1088269,121.5315571,4房2廳3衛3陽台,4,2,3,0,3,4,整層,elevator,105.2,6,14,12,2026-06-22,broker,可開伙、有電梯、水泥隔間、對外窗、有陽台
ddx6mnhbph6yzchg,https://www.dd-room.com/object/ddx6mnhbph6yzchg,@@六張犁科技大樓商圈旁*靜巷樹海美邸,247999,495998,27646,臺北市大安區敦南街,大安區,敦南街,25.0214853,121.547178,4房3廳3衛2陽台,4,3,3,0,2,4,整層,elevator,143.2,2,16,12,2026-06-22,broker,對外窗、有電梯、水泥隔間
ndqsugemh47yudxm,https://www.dd-room.com/object/ndqsugemh47yudxm,@@台北小巨蛋商圈旁*質感明亮美邸,83499,166998,7500,臺北市松山區健康路,松山區,健康路,25.05253,121.5526364,3房2廳2衛1陽台,3,2,2,0,1,3,整層,elevator,46.7,2,9,12,2026-06-22,broker,可開伙、有電梯、對外窗、有陽台
p49g8uiowt2ei55k,https://www.dd-room.com/object/p49g8uiowt2ei55k,@@信義象山吳興國小旁*採光明亮三房,47999,96000,2882,臺北市信義區吳興街,信義區,吳興街,25.0251064,121.5670694,4房2廳3衛1陽台,4,2,3,0,1,4,整層,elevator,42,1,7,12,2026-06-22,broker,保全設施、對外窗、可開伙
mqcqnq9ar7vgxwin,https://www.dd-room.com/object/mqcqnq9ar7vgxwin,@@昆陽捷運商圈旁*清新明亮2+1房,85000,170000,8000,臺北市南港區重陽路,南港區,重陽路,25.0569437,121.5998567,3房2廳2衛1陽台,3,2,2,0,1,3,整層,elevator,60.4,6,9,12,2026-06-22,broker,可開伙、可養貓、可養狗、可養其他寵物、有電梯、水泥隔間、對外窗、有陽台
tova2y3yhpam2dhx,https://www.dd-room.com/object/tova2y3yhpam2dhx,@@大安麟光捷運商圈旁*健身明亮機能宅,36999,73998,0,臺北市大安區和平東路三段,大安區,和平東路三段,25.0109102,121.5639627,4房2廳2衛1陽台,4,2,2,0,1,4,整層,apt,32.8,4,4,12,2026-06-22,broker,對外窗、可開伙、水泥隔間
alkqtwu6qbnebzic,https://www.dd-room.com/object/alkqtwu6qbnebzic,@@內湖捷運商圈旁*採光明亮優質機能宅,63500,127000,0,臺北市內湖區成功路四段,內湖區,成功路四段,25.0847146,121.597789,3房2廳2衛2陽台,3,2,2,0,2,3,整層,elevator,62,4,14,12,2026-06-22,broker,對外窗、有電梯、水泥隔間
i92hzkslimlf1gw6,https://www.dd-room.com/object/i92hzkslimlf1gw6,@@@善導寺台大東門商圈旁*溫馨明亮美居,74998,150000,5293,臺北市中正區仁愛路一段,中正區,仁愛路一段,25.0383307,121.5204463,2房1廳1衛1陽台,2,1,1,0,1,2,整層,elevator,26.5,7,6,12,2026-06-22,broker,可開伙、有電梯、對外窗、有陽台
ervm54tiqiwlb32s,https://www.dd-room.com/object/ervm54tiqiwlb32s,@@信義象山捷運商圈*採光挑高住辦,55000,110000,4480,臺北市信義區信義路五段,信義區,信義路五段,25.0330722,121.5605445,1房1廳1衛1陽台,1,1,1,0,1,1,整層,elevator,43.4,6,12,12,2026-06-22,broker,可開伙、對外窗、有電梯、有陽台
hkg8sgkdwk24thdt,https://www.dd-room.com/object/hkg8sgkdwk24thdt,@@大安六張犁商圈旁*優質生活機能居,67999,135998,2600,臺北市大安區敦化南路二段,大安區,敦化南路二段,25.0333105,121.5490456,2房2廳2衛1陽台,2,2,2,0,1,2,整層,elevator,37.4,5,12,12,2026-06-22,broker,可開伙、有電梯、水泥隔間
wbeuuiktxajxzsry,https://www.dd-room.com/object/wbeuuiktxajxzsry,@@芝山天母SOGO商圈旁*質感高樓景觀明亮美邸,235000,470000,0,臺北市士林區中山北路六段,士林區,中山北路六段,25.1032702,121.5250883,4房2廳4衛2陽台,4,2,4,0,2,4,整層,elevator,105.2,18,21,24,2026-06-22,broker,對外窗、有電梯、水泥隔間
7frm2cko2j9mtuth,https://www.dd-room.com/object/7frm2cko2j9mtuth,景美考試院溝子口河景拎包入住,15000,29999,0,臺北市文山區木柵路一段,文山區,木柵路一段,24.9886465,121.5571187,2房1廳1衛1陽台,2,1,1,0,1,2,整層,apt,15,4,4,12,2026-06-21,broker,可養貓、可養狗、可養其他寵物、可無火煮食、對外窗、氣密窗、可報稅、有陽台、可入籍
sntzfewgruqgmwql,https://www.dd-room.com/object/sntzfewgruqgmwql,近家樂福、薇閣高中國小、復興高中、復興傳統市場寧靜套房,9200,18400,0,臺北市北投區大屯路,北投區,大屯路,25.1437697,121.5008212,1房1廳1衛1陽台,1,1,1,0,1,2,分租套房,house,8,2,3,12,2026-06-20,agent,可無火煮食、對外窗、保全設施、水費照台水、免仲介費、水泥隔間、有陽台
csux3qcjy7dkdd7l,https://www.dd-room.com/object/csux3qcjy7dkdd7l,捷運萬芳醫院1分【超值3房1廳】有陽台★採光優★中科大,29999,59998,0,臺北市文山區興隆路三段,文山區,興隆路三段,24.9981483,121.5588495,3房1廳1衛1陽台,3,1,1,0,1,3,整層,apt,20,6,6,12,2026-06-19,broker,可開伙、有陽台
p3qekhxrrsnwiagy,https://www.dd-room.com/object/p3qekhxrrsnwiagy,捷運南京三民【優質3房2衛】有陽台★皆有窗★附冷氣,38999,77998,0,臺北市松山區八德路四段,松山區,八德路四段,25.0488403,121.564381,3房2廳2衛3陽台,3,2,2,0,3,3,整層,apt,34,5,5,12,2026-06-19,broker,可開伙、有陽台
ymp0vdbvrqftfj7j,https://www.dd-room.com/object/ymp0vdbvrqftfj7j,近捷運明德【超值3房2衛】可補助★警衛管理★有陽台,41999,83998,2170,臺北市北投區文林北路,北投區,文林北路,25.1051566,121.5180389,3房2廳2衛2陽台,3,2,2,0,2,3,整層,elevator,31,7,12,12,2026-06-19,broker,可開伙、有陽台、租金補貼
39a5alucixpwlhv3,https://www.dd-room.com/object/39a5alucixpwlhv3,捷運台北小巨蛋【優質租案】獨洗衣機★垃圾代收★免爬梯,15999,31998,500,臺北市松山區福德街,松山區,福德街,25.0362646,121.5788041,1房1衛,1,0,1,0,0,2,獨立套房,apt,4,1,4,12,2026-06-19,broker,垃圾代收
oqp5y44yqwzwtpaa,https://www.dd-room.com/object/oqp5y44yqwzwtpaa,捷運後山埤【超值租案】限女性★採光優★垃圾代收,11999,23998,0,臺北市信義區福德街,信義區,福德街,25.0371886,121.5814781,1房1衛,1,0,1,0,0,2,獨立套房,apt,5,5,5,12,2026-06-19,broker,垃圾代收
hougvddew35c6zwl,https://www.dd-room.com/object/hougvddew35c6zwl,近捷運後山埤【超值租案】女性專屬★垃圾代收★獨立衛浴,7999,15998,0,臺北市信義區福德街,信義區,福德街,25.0371886,121.5814781,1房1衛,1,0,1,0,0,2,獨立套房,apt,3,5,5,12,2026-06-19,broker,垃圾代收
nszlrug0aevjm2b8,https://www.dd-room.com/object/nszlrug0aevjm2b8,捷運葫洲【豪邸3房2衛】可入籍★警衛管理★樓中樓,57990,115980,4050,臺北市內湖區金湖路,內湖區,金湖路,25.0837687,121.5954124,3房2廳2衛1陽台,3,2,2,0,1,3,整層,elevator,25,3,8,12,2026-06-18,broker,可開伙、有電梯、有陽台、可入籍
1av5mpz4k0fkd2pr,https://www.dd-room.com/object/1av5mpz4k0fkd2pr,捷運後山埤3分【優質租案】警衛管理★洗衣機★有電梯,23999,47998,0,臺北市南港區忠孝東路五段,南港區,忠孝東路五段,25.0448112,121.5822806,1房1衛,1,0,1,0,0,2,獨立套房,elevator,5,-1,8,12,2026-06-18,broker,可開伙、有電梯
mbjjyrzreipkojc7,https://www.dd-room.com/object/mbjjyrzreipkojc7,💓秒殺/大安/科技大樓捷運站/陽台質感2+1房雙衛浴/電梯,65000,130000,0,臺北市大安區和平東路二段,大安區,和平東路二段,25.0256339,121.5383961,3房2廳2衛1陽台,3,2,2,0,1,3,整層,elevator,31.8,5,7,12,2026-06-18,broker,可無火煮食、有電梯、有陽台、對外窗、可開伙、保全設施、電費照台電、水費照台水
kweegvyhnkshd8ei,https://www.dd-room.com/object/kweegvyhnkshd8ei,💓新北投家樂福/電梯套房/可租補/可養貓/台電,7500,15000,0,臺北市北投區中和街,北投區,中和街,25.1405111,121.5002439,1房1衛,1,0,1,0,0,2,獨立套房,elevator,6,5,5,12,2026-06-18,broker,可無火煮食、可養貓、租金補貼、可報稅、有電梯、可入籍、對外窗、可養其他寵物
a6xglzacpm0ib3oo,https://www.dd-room.com/object/a6xglzacpm0ib3oo,💓中山國小捷運/可租補/台電/可養貓/可報稅,24500,49000,0,臺北市中山區新生北路三段,中山區,新生北路三段,25.0655896,121.5290694,2房1廳1衛,2,1,1,0,0,2,整層,apt,12,2,4,12,2026-06-18,broker,可無火煮食、可養貓、可報稅、可入籍、對外窗、租金補貼
6p24kywounjvy3em,https://www.dd-room.com/object/6p24kywounjvy3em,💓台北車站捷運平價雅房/可養貓咪/可租補可報稅,7800,15600,0,臺北市中正區漢口街一段,中正區,漢口街一段,25.0451622,121.5103767,1房,1,0,0,0,0,1,雅房,apt,4,2,5,3,2026-06-18,broker,可無火煮食、可養貓、租金補貼、可報稅、可入籍、對外窗、垃圾代收
aof4rvv3czwy5vfy,https://www.dd-room.com/object/aof4rvv3czwy5vfy,💓西門捷運/西門町近昆明街/電梯套房/可養貓/可短租,16000,32000,0,臺北市萬華區漢口街二段,萬華區,漢口街二段,25.046203,121.5046071,1房1衛,1,0,1,0,0,2,獨立套房,elevator,7,5,11,12,2026-06-18,broker,可無火煮食、可養貓、有電梯、對外窗、可養其他寵物
6bl3vcyturqolmsr,https://www.dd-room.com/object/6bl3vcyturqolmsr,💓秒殺士林/可養貓/可租補/可報稅/台電/短租可談,15500,31000,500,臺北市士林區延平北路五段,士林區,延平北路五段,25.0811652,121.5105537,1房1衛,1,0,1,0,0,2,獨立套房,apt,9,2,5,12,2026-06-18,broker,可無火煮食、可養貓、租金補貼、可報稅、可入籍、對外窗、可養其他寵物
h2ncvkwxl60csp2u,https://www.dd-room.com/object/h2ncvkwxl60csp2u,💓福德國小近南港公園/貓咪可談/獨曬平價套房/水費0元,12000,24000,0,臺北市南港區福德街,南港區,福德街,25.0409996,121.5917003,1房1衛,1,0,1,0,0,2,獨立套房,apt,5,2,4,12,2026-06-18,broker,可無火煮食、可養貓、對外窗、電費照台電
5lhbteiwftzxjyiv,https://www.dd-room.com/object/5lhbteiwftzxjyiv,💓忠孝復興捷運/電梯套房/高樓層/採光/東區無敵生活機能,23000,46000,0,臺北市大安區復興南路一段,大安區,復興南路一段,25.0433313,121.5438915,1房1衛,1,0,1,0,0,2,獨立套房,elevator,12,10,12,12,2026-06-18,broker,可無火煮食、對外窗、有電梯
