osm_type,osm_id,name,tourism_type,latitude,longitude
node,332497665,皇后旅社,hotel,25.0513136,121.5146478
node,663578256,八隻大象青年之家,hostel,25.0238144,121.5226588
node,663578258,Dreaming Dragon Hostel,hostel,25.0237464,121.5227447
node,760264848,伊樂園大飯店,hotel,25.0461308,121.5067411
node,871331295,金龍湖商務旅館,hotel,25.0715463,121.6308922
node,1282483919,台北美侖大飯店,hotel,25.0342102,121.5438956
node,1336185525,國聯飯店,hotel,25.0421287,121.557427
node,1672151059,晶璽旅館,hotel,25.0328207,121.5591529
node,1678965162,台北W飯店,hotel,25.0404919,121.5657463
node,1720014726,沐蘭精品旅館,motel,25.082406,121.5614181
node,1723984173,探索MOTEL,motel,25.0796318,121.5108181
node,2094662039,雀客快捷台北永康,hotel,25.0346616,121.5265127
node,2099553264,旅·晨行旅,hotel,25.0467752,121.5134597
node,2124843037,百利旅館,hotel,25.0602256,121.5219335
node,2139984834,古山園旅社,hotel,25.0374073,121.4980905
node,2146918178,君品酒店,hotel,25.04914,121.5169225
node,2282746892,JV's Hostel,hostel,25.0294337,121.5551966
node,2310547856,西門町意舍飯店,hotel,25.0451139,121.5058914
node,2310547864,萬事達旅店西門店,hotel,25.0453424,121.5087538
node,2318354644,新驛旅店 西門捷運店,hotel,25.0418794,121.5091999
node,2418093419,台北城美大飯店,hotel,25.045068,121.5119623
node,2421842400,華國大飯店,hotel,25.065911,121.525526
node,2441378320,台北樂客商旅,hotel,25.0433157,121.5135371
node,2445909879,SIMPLE+ HOTEL,hotel,25.0502683,121.5450425
node,2446002132,凱微精品hotel,hotel,25.058468,121.5257089
node,2450783846,沐舍背包客棧,hostel,25.0418317,121.5483723
node,2450783872,喬合大飯店,hotel,25.0427356,121.5435436
node,2462876033,瑪奇文旅,hotel,24.9925372,121.5419764
node,2470166474,璽愛旅店,hotel,25.0467833,121.514021
node,2470166565,全家歡旅店,hotel,25.0467507,121.514156
node,2470166676,新站旅店,hotel,25.046766,121.514087
node,2470166851,華達大飯店,hotel,25.0467764,121.5134071
node,2486816961,欣和旅店,hotel,25.0264637,121.5231721
node,2500045714,丰居旅店,hotel,25.0439937,121.5077511
node,2524398259,小雅HOTEL,hotel,25.049757,121.573493
node,2527527723,長虹大飯店,hotel,25.0445116,121.5073988
node,2527527834,香榭巴洛克,hotel,25.0442654,121.5073254
node,2533594476,群來商旅,hotel,25.0451073,121.5261698
node,2557319171,春天夢幻旅館,hotel,25.0547592,121.5247132
node,2557466403,鴨川旅館,hotel,25.0569563,121.5249411
node,2572568046,西門航棧商旅,hotel,25.0431415,121.5080958
node,2572568048,璞麗hotel,hotel,25.0430887,121.5067305
node,2572568051,金夜賓館,hotel,25.0494521,121.5699848
node,2572568062,喬美Hotel,hotel,25.0480066,121.5586448
node,2590490928,帥客旅店,hotel,25.0300718,121.5195595
node,2590490940,愛家旅館,hotel,24.9740891,121.54315
node,2604136871,Solo Singer Inn,hotel,25.1341015,121.5028582
node,2617041914,欣園汽車旅館,motel,24.9637755,121.5188533
node,2656074187,雅柏汽車旅館,motel,25.0515339,121.5670708
node,2850319482,HOTEL B6,hotel,25.0450175,121.5052259
node,2850322965,紅菱閣旅店,hotel,25.0440713,121.5041298
node,2850324304,富粧旅店,hotel,25.0459114,121.5031686
node,2913662317,大地清旅,hotel,25.0480398,121.54299
node,2924917846,全家Hotel,hotel,25.0013454,121.5005525
node,2926240046,東驛商旅,hotel,25.045719,121.5054374
node,2926240501,黛芬旅店,hotel,25.0457282,121.5053459
node,2931491188,九閣商旅,hotel,24.9725907,121.5287493
node,2935705794,綠蒂HOTEL,hotel,25.0652752,121.5268457
node,2935705795,采舍精品旅館,hotel,25.0646785,121.5267687
node,2959896112,愛客發時尚旅館萬年館,hotel,25.0436597,121.5057358
node,3006036114,儷萊商旅,hotel,25.0463815,121.509942
node,3007181106,百悅商務旅館,hotel,25.0463558,121.507525
node,3007195206,西門星辰飯店,hotel,25.0441668,121.5036445
node,3007195591,東龍大飯店,hotel,25.0455344,121.5078903
node,3028086867,台北富驛時尚酒店,hotel,25.0522078,121.5407977
node,3035134108,水都飯店,hotel,25.1369512,121.5108352
node,3035134109,東皇,hotel,25.1361593,121.5106833
node,3035134991,金都精緻溫泉飯店,hotel,25.1362787,121.5076255
node,3035134992,美代湯宴,hotel,25.1370824,121.5105967
node,3035135041,鳳凰閣溫泉會館,hotel,25.1361334,121.5102892
node,3036990031,京都溫泉行館,hotel,25.1364983,121.5119511
node,3036995458,荷豐館,hotel,25.1367433,121.5129017
node,3037008406,華心飯店,hotel,25.1361857,121.5137652
node,3037008739,倆人旅店,hotel,25.1369738,121.5136249
node,3054757337,新加坡汽車旅館,motel,25.0685005,121.4702143
node,3065313369,衣蝶旅店,hotel,25.0632247,121.5273772
node,3133631552,佳佳 ‧ 士林珮柏,hotel,25.0926359,121.5230768
node,3191524051,帝苑時尚旅店,hotel,25.0203477,121.4666484
node,3221770001,微風Hotel,hotel,25.0575348,121.5236957
node,3231669810,客來思樂賓館,hotel,25.0193771,121.5299129
node,3262986367,瘋台北青旅,hostel,25.0457123,121.5108332
node,3270306166,謙商旅Chain Hotel,hotel,25.0341729,121.528946
node,3287087301,途中．台北 國際青年旅舍,hostel,25.1330723,121.5008921
node,3316912674,家賓大旅社,hotel,24.9917478,121.5410462
node,3316912675,景美大旅社,hotel,24.9901135,121.540796
node,3353482762,寒舍艾麗酒店,hotel,25.0386059,121.5673778
node,3390213912,王老先生旅舍,hostel,25.0458604,121.5041054
node,3444671420,金色年代旅店,hotel,25.0064171,121.46158
node,3444713872,首府大旅社,hotel,25.0073754,121.4622736
node,3451466250,愛芝園旅館,hotel,25.0318784,121.5586149
node,3472559544,富康精采旅店,hotel,25.0274784,121.4703252
node,3476696155,景安精品旅館,hotel,24.9963833,121.5043665
node,3502694423,誠品行旅,hotel,25.0446431,121.5618788
node,3533978593,舞衣新宿南京館,hotel,25.0522311,121.535866
node,3540983507,祥興樓水漾會館,hotel,25.0044264,121.488263
node,3542309426,Single INN單人房-台北館,hotel,25.0105088,121.4590543
node,3544646394,二十輪旅店,hotel,25.0447623,121.5061998
node,3544661594,薆悅酒店,hotel,25.0450099,121.5067019
node,3544661595,和旅瓏旅館,hotel,25.0450912,121.5067944
node,3544693794,西門旅館,hotel,25.0455602,121.5088382
node,3544694193,儷夏精品旅店,hotel,25.0459198,121.5066585
node,3550932809,思泊客,hotel,25.032544,121.563314
node,3550932810,豪麗旺商務旅館,hotel,25.0321809,121.5595067
node,3561044205,品格子旅店,hotel,25.0456088,121.5174224
node,3561052999,窩旅館,hotel,25.0455737,121.5174125
node,3581160293,和逸-忠孝館,hotel,25.0446197,121.5252949
node,3626353993,德立莊,hotel,25.0466829,121.5056843
node,3633921320,香城商旅,hotel,25.033357,121.5552494
node,3707479470,台北青年國際旅館,hotel,25.0456472,121.516509
node,3710078778,日暉商務旅館,hotel,24.9933674,121.5038975
node,3752985284,新榮大旅社,hotel,25.0882229,121.526313
node,3823837090,立瀚會館,hotel,25.0325902,121.5042722
node,3863568265,寶格利時尚旅館,hotel,25.0411645,121.5076087
node,3863568266,桔子商旅-台北西門店,hotel,25.0412851,121.5076369
node,3867437820,黎明Hotel,hotel,24.9809385,121.5414507
node,3881407475,南陽街壹號旅店,hotel,25.0458031,121.5163251
node,3881851463,洛碁大飯店中華館,hotel,25.0447648,121.5094876
node,3881851950,捷絲旅台北西門館,hotel,25.0450419,121.5096269
node,3938949101,修齊會館,hotel,25.0139918,121.5300688
node,3939158032,新仕旗店,hotel,25.0577017,121.522286
node,3939158492,萬事達旅店,hotel,25.0464233,121.5779915
node,4018208920,承攜行旅台北重慶館,hotel,25.0521187,121.5138125
node,4018210028,新逸旅店,hotel,25.0511189,121.5166464
node,4018211177,背包棧旅店,hostel,25.0540952,121.5388574
node,4032500061,台北日記旅店,hotel,25.0460851,121.5129973
node,4033374015,君迪商旅,hotel,24.9940868,121.4850123
node,4085141436,甜蜜蜜旅館,hotel,25.0031331,121.4541727
node,4109188590,太空艙青年旅舍,hostel,25.0424209,121.5121442
node,4109416991,香榭峇里Hotel,hotel,25.0419214,121.5434544
node,4118442368,享住旅店,hotel,25.0450723,121.5147328
node,4123034910,旅樂序旅館 站前一館,hotel,25.0458399,121.5146235
node,4127807976,台北六福萬怡,hotel,25.0527541,121.6058287
node,4128150382,晶城青年旅館,hostel,25.0538288,121.5140352
node,4148721616,小公館文人旅舍,hostel,25.0515613,121.5698118
node,4149477983,宮賓旅舍,hotel,25.0067481,121.4572294
node,4149477984,悅喜商務飯店,hotel,25.0084998,121.4579798
node,4149477985,新都旅店,hotel,25.0050864,121.4554721
node,4149477987,欣芳旅店,hotel,25.0070427,121.4566789
node,4149477988,百麗旅店,hotel,25.008535,121.457583
node,4149484090,藝宿商旅,hotel,25.0092746,121.458057
node,4149484093,馥麗商旅,hotel,25.0078272,121.4580632
node,4149484094,馥麗商旅二館,hotel,25.0091873,121.4578253
node,4150685013,InPage Hotel,hotel,25.0452937,121.5133805
node,4152383789,四四小公寓,hotel,25.0334595,121.5495338
node,4154656590,蜂巢 Bee House,hotel,25.051047,121.515514
node,4167728989,Fun Taipei Backpackers,hostel,25.0886631,121.5231312
node,4205230083,首都大飯店大直館,hotel,25.0813225,121.5609377
node,4221670191,台北發現青年旅舍,hostel,25.062814,121.5291099
node,4235272603,天使商旅,hotel,25.0507531,121.5699038
node,4235796401,永安棧,hotel,25.0428867,121.5080633
node,4235840393,摩根Motel,motel,25.090428,121.4645805
node,4236764836,191寧夏旅店,hotel,25.0546575,121.515032
node,4241731433,迪樂商旅,hotel,25.0528395,121.5119238
node,4242363292,高絲旅時尚旅館漢口館,hotel,25.0456894,121.5060453
node,4245894189,CLICK Hotel,hotel,25.0440522,121.5060376
node,4246829937,CLICK Hotel,hotel,25.0455866,121.5063508
node,4257932091,柯達大飯店永和店,hotel,25.0077662,121.513692
node,4258167531,焿子坪溫泉會館 (休業),hotel,25.1878415,121.6170956
node,4259936190,長富時尚旅店,hotel,25.0547727,121.5260199
node,4260027890,黑熊好眠站膠囊旅館,hotel,25.0631256,121.4996877
node,4292131691,Mr Lobster's Secret Den Design Hotel,hostel,25.0504615,121.5133591
node,4298897593,路境行旅,hotel,25.0431545,121.5130472
node,4298897596,培美Hotel,hotel,25.042872,121.5129598
node,4298897601,Via Hotel Station 丰居旅店北車館,hotel,25.0438142,121.5131133
node,4298897603,享樂文旅,hotel,25.0461093,121.5128092
node,4298897646,101艾美琪hotel,hotel,25.0433862,121.5428785
node,4307626647,趣旅館,hotel,25.0613312,121.5270015
node,4309145399,杜萊根國際青年旅舍,hostel,25.0515062,121.5698139
node,4316596021,台北日記旅館 中華二館,hotel,25.0446856,121.5084145
node,4316596069,儷夏商旅 中華館,hotel,25.044768,121.5084343
node,4325606042,虹都快捷Hotel,hotel,25.0709643,121.4947549
node,4329453091,Shihlin Stay Plus,hostel,25.0912266,121.524609
node,4329768669,六福居,hotel,25.0519586,121.5241676
node,4330538196,第二青年客棧,hostel,25.0250596,121.5306778
node,4331632719,台北市1983 第一青年旅社,hostel,25.0228712,121.5298739
node,4332324289,花豹屋花園,hostel,25.0408581,121.5047654
node,4335016699,天晴HOTEL,hotel,25.042616,121.5139648
node,4344542412,天閣酒店,hotel,25.0497327,121.5245698
node,4344543596,芝加哥Hotel,hotel,25.0505404,121.5264278
node,4344543611,4 Plus斯格加旅店,hotel,25.0494788,121.5244977
node,4358892192,馬槽花藝村,hotel,25.1889444,121.5692029
node,4375049638,西門街角,hostel,25.0430838,121.5068549
node,4380057593,明日大飯店,hotel,25.0426402,121.5070141
node,4384259013,東鑫商務旅館,hotel,25.0416604,121.5520795
node,4405771749,伸適商旅,hotel,25.0610384,121.5257527
node,4411493480,日暉酒店,hotel,25.0432966,121.5139054
node,4421420354,富裕自由商旅忠孝館,hotel,25.0418396,121.5537999
node,4432818424,蘋果Hotel,hotel,25.0063372,121.5061859
node,4436151958,三重大旅社,hotel,25.0707007,121.4950754
node,4436175212,沃客商旅-正義館,hotel,25.0604005,121.4980938
node,4452031690,丰居旅店,hotel,25.0434745,121.5429016
node,4483303089,天倫大旅社,hotel,25.0890083,121.5252404
node,4483316694,士林青年旅館,hostel,25.0878148,121.526443
node,4487080890,居久宿舍,hostel,25.0437651,121.5037246
node,4524863755,享樂文旅,hotel,25.043991,121.5025891
node,4524863757,Backpacker,hostel,25.0439984,121.503297
node,4524863831,天闊酒店,hotel,25.0536995,121.5443151
node,4524864046,谷墨商旅,hotel,25.0266158,121.5309129
node,4524864111,沐舍溫泉旅館,hotel,25.2153949,121.6434453
node,4524864129,千慧旅館,hotel,25.0524721,121.5199306
node,4524864143,啟文飯店,hotel,25.0571188,121.5103876
node,4524864490,Tango INN,hotel,25.0446449,121.5045055
node,4538275040,中信旅店,hotel,25.0141505,121.5180003
node,4588548489,旅游淘背包客棧,hostel,25.0622931,121.5319581
node,4596733575,C U Hotel,hotel,25.0569797,121.5164478
node,4604331782,台北漫步旅店,hostel,25.0438313,121.5024671
node,4646608900,快樂台北,hostel,25.0901704,121.5264913
node,4756017486,康寧生活會館,hotel,25.0755951,121.6087941
node,4782136823,Jiizu Hostel,hostel,25.0517176,121.5636227
node,4794229023,睡覺盒子青年旅館,hostel,25.0421632,121.5123924
node,4807169221,,motel,25.0316416,121.4991449
node,4808895826,茄子青旅,hostel,25.0518747,121.5605862
node,4811426121,,hotel,25.0541169,121.5139163
node,4819304922,慶爾喜旅館,hotel,25.0456994,121.5048838
node,4837986364,豪麗飯店,hotel,25.0410894,121.5463011
node,4837986383,百花商務飯店,hotel,25.0385794,121.5248105
node,4837986522,福華旅邸,hotel,25.0547244,121.5451763
node,4838086696,昌吉一號記憶旅店,hotel,25.0660329,121.517903
node,4838087629,ART' OTEL,hotel,25.0453306,121.5034971
node,4838087636,Millia Hotel,hotel,25.0431335,121.5058356
node,4838087694,玩味旅舍,hotel,25.0549413,121.5163472
node,4838087726,大稻埕花園旅店,hotel,25.0621688,121.5090956
node,4838087761,橋泰商務旅館,hotel,25.0634321,121.5109567
node,4983984604,丰居旅店,hotel,25.057824,121.5245497
node,4995882686,凱達大飯店,hotel,25.0333062,121.4996308
node,5038755617,MAIN INN,hotel,25.0495976,121.5144861
node,5059352325,,guest_house,25.0329035,121.5502602
node,5095512241,文舺行旅,hotel,25.0375712,121.4996918
node,5110245064,方舟旅店,hotel,25.0338364,121.5314764
node,5110269773,HOUZE HOSTEL,hotel,25.0523808,121.5343176
node,5110348541,松山意舍酒店,hotel,25.0493021,121.5805095
node,5110348558,東旅,hotel,25.0517226,121.5603101
node,5110348561,巴客來青年旅館,hostel,25.048536,121.5761806
node,5110348575,一等好旅店,hotel,25.0495749,121.5740152
node,5110349517,仲信大湖商旅,hotel,25.0844633,121.5998456
node,5110489273,新世界飯店,hotel,25.0409847,121.5045421
node,5110489276,玫瑰精品會館,hotel,25.0490553,121.5207258
node,5110489281,迎賓旅社,hotel,25.0505128,121.5155996
node,5110489284,獅城大飯店,hotel,25.0503253,121.5155824
node,5110489286,Dog Hole Hotel,hotel,25.0497396,121.5179133
node,5110489299,千彩格精品旅店,hotel,25.055661,121.5252161
node,5110489315,LV精緻旅店,hotel,25.0597838,121.5261606
node,5110489317,錦棧旅,hotel,25.0598674,121.5257608
node,5110489745,緒遠旅館,hotel,25.0601896,121.5241643
node,5110489747,珍美Hotel,hotel,25.0602022,121.5238829
node,5110489768,君臨Hotel,hotel,25.0964231,121.5244363
node,5110489809,米尼青年旅店,hotel,25.0461613,121.518941
node,5110490221,藝宿文旅,hotel,25.0470797,121.5052425
node,5110490225,欣欣時尚旅館,hotel,25.0470276,121.5058381
node,5110490226,一加一旅館,hotel,25.0470643,121.5057844
node,5110490227,宓琪旅館,hotel,25.0469655,121.5058061
node,5110490244,皇家玫瑰旅館,hotel,25.0463835,121.5071083
node,5110490247,U HOTEL,hotel,25.0462798,121.5071103
node,5110490248,西門邑居,hotel,25.0459181,121.5069944
node,5110490249,旅居文旅,hotel,25.0462163,121.5070775
node,5110490270,麗雅精品旅館,hotel,25.0547807,121.5262094
node,5110490306,Flipflop Hostel,hostel,25.0498841,121.5172748
node,5110491025,柯達大飯店,hotel,25.0528139,121.5231837
node,5302777542,北門窩泊旅,hotel,25.0522481,121.5155035
node,5310769993,台糖台北會館,hotel,25.045471,121.509794
node,5313864468,城市商旅,hotel,25.0515209,121.5701078
node,5314324318,富景商旅,hotel,25.0506132,121.5698123
node,5334717722,南西六號公寓,hostel,25.0523187,121.5198629
node,5338403921,,hostel,25.04131,121.5066583
node,5346792179,阿樹國際旅店,hotel,25.0479136,121.5527611
node,5351899071,maple'Smile,hotel,25.1447186,121.5683893
node,5468442322,S&J 氧氣台北台大公館國際酒店式公寓,hotel,25.0158119,121.5322464
node,5495149522,吉泰旅店,hotel,25.0909541,121.52562
node,5551907224,你好咖啡旅館,hotel,25.0338512,121.542299
node,5563917934,棧留台北,hostel,25.0444545,121.5133797
node,5568220048,尚印旅店,hotel,25.0573946,121.5232126
node,5568220049,中山莉豪商務旅店,hotel,25.0572698,121.5232079
node,5599663425,峻美精品旅店,hotel,25.0547808,121.5263359
node,5661164135,Grace Hotel 葛瑞絲商旅,hotel,25.0028782,121.4988595
node,5739420397,流民棧,hostel,25.0157161,121.5154517
node,5832709458,吉林汽車旅館,motel,25.0656401,121.618435
node,5833685992,臺北大亞帝國,hotel,25.0460875,121.5158272
node,5839258670,EFCA愛客発商務旅館西門2館,hotel,25.0433153,121.5041099
node,5839266784,,hotel,25.04343,121.5034164
node,5839491742,台北商旅,hotel,25.0387078,121.5462423
node,5923884744,Zebra apartments,hostel,25.0427128,121.5012924
node,6050500241,天倫旅社,hotel,25.0887194,121.5253532
node,6093264185,台北有愛公寓,hostel,25.048519,121.5204957
node,6111946997,天雲旅棧台北基河,hotel,25.0829945,121.5242392
node,6137457604,hotel QUOTE Taipei,hotel,25.051991,121.547412
node,6158754865,基泰酒店式公寓,hotel,25.0250934,121.5537253
node,6166999285,,hotel,25.045907,121.5054162
node,6188986709,三和旅舍,hostel,25.0676909,121.5006485
node,6224730656,詩漫精品旅館,hotel,25.0457595,121.5146246
node,6224730657,雅璞文旅,hotel,25.0457634,121.5147242
node,6344401707,南港老爺行旅,hotel,25.0598812,121.6147347
node,6415478295,昇行旅背包客棧,hostel,25.0101597,121.520488
node,6416162017,The Loft - 沐舍時尚酒店,hotel,25.0002835,121.4853601
node,6418121431,久居棧旅店,hotel,25.0625664,121.5116071
node,6433456337,皇后旅店二館,hotel,25.0541162,121.5131584
node,6499715243,Hoyumi Hotel,hotel,25.0531173,121.5231563
node,6499848170,Jian Shan,hotel,25.0581301,121.512227
node,6568146970,寓見青旅,hostel,25.0357912,121.5032919
node,6579380116,牡丹居,hotel,25.0658777,121.5116932
node,6602462504,安得國際青年旅店,hostel,25.0450083,121.5176963
node,6682287324,賓王大飯店,hotel,25.0541054,121.5131584
node,6770880785,壹03·旅,hostel,25.0499682,121.5231133
node,6789300807,台北碧瑤飯店,hotel,25.0479034,121.544781
node,6939523039,夜光商旅,hotel,25.0422225,121.5053451
node,6939523040,西門居易,hotel,25.0425311,121.5054148
node,6939523043,長樂町旅店,hotel,25.0425166,121.505219
node,6939523044,達福旅店,hotel,25.0426235,121.505262
node,7012059673,miniinn,hostel,25.0459752,121.518987
node,7021139514,五月花民宿,hostel,25.0548582,121.6104662
node,7211952419,Qtime,hostel,25.041809,121.5515068
node,7211952421,凡登台北商務旅店,hotel,25.0417414,121.5516427
node,7211952422,有統Hotel,hotel,25.0418471,121.5516669
node,7212236783,York 約克設計旅店,hotel,25.0449691,121.5162444
node,7255698372,卡夫人背包客棧,hostel,25.0447094,121.5148919
node,7320973052,清心翼居設計旅社,hotel,25.0452983,121.5160062
node,7652736150,葳皇時尚飯店,hotel,25.0591454,121.5116467
node,7652736151,意芙旅店,hotel,25.0593159,121.5116069
node,8059094180,薇風馥麗飯店,hotel,25.077396,121.484843
node,8059094182,花蝶晶漾商旅（HOTEL）,hotel,25.053349,121.451488
node,8059100986,台北集賢商旅,hotel,25.0831829,121.4804904
node,8059100988,美麗海精品汽車旅館,hotel,25.0604123,121.4621246
node,8059100993,捷絲旅台北三重館,hotel,25.077349,121.487489
node,8059100995,幸福讚精品飯店,hotel,25.050988,121.461143
node,8059101001,成旅晶贊飯店台北蘆洲,hotel,25.080429,121.480455
node,8059101002,慶城商旅,hotel,25.0604297,121.4979944
node,8059101003,上品閣精品旅館,hotel,25.073198,121.493181
node,8059101006,名華大旅社,hotel,25.065202,121.502479
node,8059101008,薇薇精品旅館,hotel,25.082416,121.482333
node,8059101014,樂頤飯店,hotel,25.0820559,121.4800619
node,8059101015,名爵汽車旅館,hotel,25.064789,121.49728
node,8059101017,嘉年華汽車旅館,hotel,25.082571,121.480634
node,8059101021,三和旅舍,hotel,25.067675,121.500698
node,8085453132,信星旅館,hotel,25.0501863,121.515401
node,8085453133,嘉榮青年旅店,hotel,25.050135,121.514756
node,8085453134,璞漣商務旅館臺北車站店,hotel,25.0500567,121.5157328
node,8085453135,門埕青旅,hotel,25.049736,121.514478
node,8085453136,漫步1948,hotel,25.050467,121.5151217
node,8085453141,梅樓商務驛站,hotel,25.049744,121.514315
node,8085453143,配普特行旅,hotel,25.049511,121.514481
node,8280854486,台北奧斯金旅店,hotel,25.0425473,121.5129844
node,8397520228,寧夏2號旅店,hotel,25.0543947,121.5146843
node,8789190025,銀座飯店,hotel,25.0555544,121.5257286
node,8811351164,天閣酒店,hotel,25.050053,121.5243855
node,8821427484,大地酒店,hotel,25.1346386,121.5073171
node,8823518469,喬太商務旅館,hotel,25.0191062,121.4795853
node,9310169089,台北新板希爾頓酒店,hotel,25.0113872,121.4625357
node,9429930622,薇米商旅,hotel,25.0616154,121.4974326
node,10009325637,寒居酒店,hotel,25.0516423,121.5327667
node,10253265724,We Come Hostel,hostel,25.0527438,121.5110643
node,10738442807,雀客藏居新北三重水漾,hotel,25.0556726,121.482799
node,10752516033,陸號行旅,hotel,25.044737,121.5084303
node,10755280662,索拉利亞西鐵飯店台北西門,hotel,25.0451717,121.5083749
node,11061673377,清翼居旅店,hotel,25.0070355,121.4604043
node,11061673378,台北輕旅複合式旅店,hotel,25.0072788,121.4600284
node,11240105217,路徒PLUS行旅 主題館,hotel,25.0467654,121.5138216
node,11257042190,大湖璞旅,hotel,25.0733254,121.6065509
node,11293962130,CityInn,hotel,25.0510728,121.5167562
node,11294029207,Dongmen 3,hostel,25.0337761,121.527701
node,11294039120,Bchic,hotel,25.0536201,121.5278591
node,11294039989,RF Hotel Linsen,hotel,25.0497147,121.5257906
node,11355878091,金弘旅社,hotel,25.0538092,121.5129819
node,11355878095,福來旅社,hotel,25.0534235,121.5122681
node,11355878096,瑾旅南西館,hotel,25.054142,121.5136225
node,11360281028,台北桃禧大飯店,hotel,25.0522856,121.5142756
node,11360281033,悅心旅,hotel,25.0512612,121.5140615
node,11393086469,Wow,hostel,25.0443356,121.50738
node,11397030769,,hostel,25.0315585,121.558501
node,11406853381,老爺會館台北南西,hotel,25.0525352,121.5219267
node,11450107369,台灣青旅膠囊旅店,hostel,25.0450314,121.517779
node,11491898923,大倫558養生美容院,hostel,25.1355718,121.5399225
node,11491922276,大倫557養生殿,hostel,25.1355576,121.5399321
node,11559675939,儷萊飯店(普亨萊大飯店),hotel,25.046399,121.5099455
node,11559675940,悅來精品旅館,hotel,25.0463655,121.5099389
node,11559675941,金財神旅館,hotel,25.0464176,121.5099497
node,11762628102,男生宿舍,hostel,24.9676605,121.5137137
node,11762628103,女生宿舍,hostel,24.9665536,121.5145377
node,11945587491,囍閱文旅,hotel,25.0407049,121.5069175
node,12083322350,瑞桑德,hotel,25.0467758,121.5135349
node,12092531786,漫映旅舍,hotel,25.0516215,121.5298495
node,12128335383,T.O. Hotel 台北車站館,hotel,25.0458686,121.514406
node,12143956201,PURE st-ay,hostel,25.0525243,121.5127518
node,12218730259,台北漢來皇家鬱金香酒店,hotel,25.0578505,121.619913
node,12228744833,旅居文旅西門驛站昆明館,hotel,25.0425457,121.504637
node,12231665901,Gawa Motel,motel,25.0565928,121.5248446
node,12297186987,珂曼旅館,hotel,25.0459514,121.5070094
node,12438632284,台北中山意舍酒店,hotel,25.0557427,121.5230484
node,12458715211,路徒PLUS行旅 站前館,hotel,25.0467653,121.5138277
node,12466891352,希爾商旅台北館,hotel,25.0523665,121.5284751
node,12570502800,Yen Inn,hotel,25.0067724,121.4598709
node,12702550901,台北棧旅店 Taipei inn,hostel,25.0454456,121.5156197
node,12790902301,富玉莊旅館,hotel,25.0876159,121.5191302
node,12802618201,町記憶旅店,hotel,25.0418862,121.504685
node,12996550601,Triple Tiger Inn,hostel,25.0437006,121.5045487
node,13325475952,Capella,hotel,25.0532059,121.5499771
node,13334327611,能量旅店,hotel,25.0435417,121.5045261
node,13337714413,AKA Hotel,hotel,25.0304958,121.5275465
node,13373796960,高絲旅時尚旅館漢口館,hotel,25.0457511,121.5058128
node,13377617340,馥俐旅店,hotel,25.0090105,121.4578901
node,13426651601,,hotel,25.0509339,121.5332564
node,13443932101,合星青年旅館,hostel,25.0420015,121.5497295
node,13476132301,方舟旅店長安復興館,hotel,25.0481322,121.5430439
node,13481520001,日光拾玖,hotel,25.0462051,121.5157947
node,13481893428,黎明旅館,hotel,24.9809848,121.5415568
node,13591916136,Chengdian Hotel,hotel,25.0136267,121.4606997
node,13733754124,瀚寓酒店,hotel,25.0398406,121.5632267
node,13967895801,歐法行旅,hotel,25.0447336,121.5085815
way,74144695,麒麟商務會館,hotel,25.0559149,121.5967571
way,74144722,有徠精品汽車旅館,motel,25.0562626,121.5967016
way,75045157,探索頂級旅館,motel,25.0555277,121.5972748
way,131648691,北投會館捷之旅,hotel,25.1346097,121.4835475
way,137077760,君悅酒店,hotel,25.0353019,121.5626348
way,146870024,JR東日本大飯店 台北,hotel,25.0523668,121.5415088
way,155814556,茹曦酒店,hotel,25.0526987,121.5481227
way,160703408,台北凱撒大飯店,hotel,25.0461063,121.5164075
way,173165154,維多麗亞酒店,hotel,25.0842878,121.5590715
way,174941752,日光行館,guest_house,25.1986003,121.4725173
way,187920919,台北星美休閒飯店,hotel,25.0845526,121.5212791
way,191757841,捷絲旅,hotel,25.0134657,121.536363
way,198162010,天成文旅華山町,hotel,25.0434821,121.5303915
way,199077926,八煙溫泉會館,hotel,25.2028061,121.5923451
way,203723646,台北晶華酒店,hotel,25.0541836,121.5243123
way,223069048,別府旅館 (水紗蓮汽車旅館),hotel,25.1370827,121.5046344
way,223069050,天月旅館,hotel,25.1372343,121.5053597
way,223253470,麗敦精緻旅店,hotel,25.1024749,121.5214739
way,228885786,陽明山水,hotel,25.2064965,121.5940159
way,228885789,金湧泉SPA溫泉會館,hotel,25.2168439,121.6439525
way,232562862,相鐵Grand Fresa台北西門,hotel,25.0415919,121.5086472
way,232674052,福華飯店,hotel,25.0374747,121.5430682
way,236271553,長春商務旅館,hotel,25.0540525,121.5455444
way,238513441,美麗信花園酒店,hotel,25.0451001,121.5372998
way,238556765,老爺會館台北林森,hotel,25.0496799,121.5249441
way,238572687,福華文教會館,hotel,25.0237201,121.5338781
way,238842259,百樂匯溫泉飯店,hotel,25.1363367,121.5089063
way,240610341,薇星景觀汽車旅館,motel,25.0536368,121.6641582
way,244386582,天成大飯店,hotel,25.0463522,121.5183379
way,244636889,台北大倉久和大飯店,hotel,25.0525191,121.5233831
way,247678969,兄弟飯店,hotel,25.052201,121.5445864
way,251212759,長榮桂冠酒店,hotel,25.0488591,121.5333147
way,256186589,台北花園大酒店,hotel,25.036402,121.5069771
way,257236721,薇閣精品旅館林森館,hotel,25.0605133,121.5266474
way,260401154,雀客旅館,hotel,25.0705977,121.5928467
way,260881640,華山文旅,hotel,25.0442661,121.5304642
way,264054540,儷閣別墅旅館,motel,24.980529,121.4851154
way,267163040,台北喜來登大飯店,hotel,25.0446862,121.5222392
way,268531082,家美瑞品台北,hotel,25.0460101,121.5242416
way,270135417,台北國軍英雄館,hotel,25.0401428,121.5085176
way,270600125,德立莊酒店,hotel,25.0425172,121.5093418
way,270600137,叙美精品旅店,hotel,25.0427405,121.5134422
way,270921050,洛碁驛大飯店,hotel,25.0458175,121.5134536
way,271425142,旅樂序精品旅館-2館,hotel,25.0453057,121.5144002
way,271754075,日野苑,hotel,25.0463108,121.5131107
way,271754076,璞邸城市膠囊旅店,hotel,25.046382,121.5134656
way,272553854,亞都麗緻飯店,hotel,25.0629,121.5300025
way,273944883,神旺大飯店(已歇業),hotel,25.0411235,121.5509942
way,291504126,洛碁大飯店林森館,hotel,25.0668176,121.5259292
way,291550968,淶滬文旅,hotel,25.1652805,121.4511279
way,292201560,馥都飯店,hotel,25.0074987,121.458139
way,296784617,福容溫泉會館,hotel,25.1595915,121.4579624
way,296786576,台北城大飯店,hotel,25.0594064,121.5133229
way,297125507,觀海樓旅店,hotel,25.1593417,121.4558167
way,302130063,汐止福泰大飯店,hotel,25.0548407,121.6314808
way,302888172,薇閣精品旅館大直館,motel,25.0835421,121.5556917
way,303826490,香城商旅,hotel,25.051288,121.5319735
way,304566640,台北大安伊普索酒店,hotel,25.03887,121.5441151
way,305376934,九昱晴美,hotel,25.0646695,121.5254998
way,305412544,燦路都飯店,hotel,25.0630649,121.5233553
way,306235115,松哖酒店,hotel,25.03778,121.533524
way,307182100,柯達大飯店,hotel,25.0210384,121.5482279
way,307986134,Lofe,hotel,25.0630004,121.5245149
way,307986142,上樺旅棧,hotel,25.0636113,121.5245119
way,308417777,官邸旅館,hotel,25.08779,121.5264085
way,309155294,臺北寒舍艾美酒店,hotel,25.0380519,121.5679292
way,310399643,洛碁大飯店建北商旅,hotel,25.0510587,121.5362704
way,310399669,柯達大飯店,hotel,25.0486624,121.5332775
way,310706500,新莊客旅,hotel,25.0438519,121.4525371
way,311693539,citizenM,hotel,25.0473216,121.5105569
way,312399356,第一大飯店,hotel,25.0523838,121.5302986
way,312820723,臺北柔美商旅,hotel,25.0544334,121.5359073
way,313129091,寶璞大飯店,hotel,25.0527087,121.5373265
way,313247974,洛碁松江大飯店,hotel,25.0672178,121.5336579
way,313584145,香城大飯店,hotel,25.0496405,121.5742456
way,313584147,首都大飯店,hotel,25.0497056,121.5756407
way,313704795,悠趣旅店,hotel,25.0484884,121.5448189
way,323306918,丹迪旅社天津店,hotel,25.0516654,121.5233386
way,323306919,天津大飯店,hotel,25.0510336,121.5234087
way,324041282,東門旅店,hotel,25.034467,121.5277506
way,328692191,皇家飯店,hotel,25.0463028,121.5143863
way,332396730,北城大飯店,hotel,25.0547882,121.5413127
way,332396745,唯客樂飯店,hotel,25.05495,121.5377669
way,337375565,冠君大飯店,hotel,25.0059058,121.4620824
way,337379758,府中棧精品旅館,hotel,25.0095292,121.459768
way,340047830,馥華旅店,hotel,25.0220405,121.4680944
way,340047831,君利商務旅館,hotel,25.0091131,121.4628229
way,342973167,慾望精緻汽車旅館,motel,25.0543693,121.6306718
way,343509695,Home Hotel,hotel,25.035066,121.5678872
way,344102371,紫園旅社,hotel,25.0505868,121.5200234
way,346886455,東姿商務旅館,hotel,25.0535229,121.5316795
way,346956041,洛碁南京大飯店,hotel,25.0516854,121.5372585
way,347314128,凱統大飯店,hotel,25.0419507,121.5335136
way,347314130,喜瑞飯店,hotel,25.0478607,121.5293681
way,347314148,Wow Hotel,hotel,25.0422823,121.5293422
way,347411627,福容大飯店台北,hotel,25.03665,121.5370391
way,353388965,泉都溫泉會館,hotel,25.1360824,121.5044041
way,353678875,攜攜行旅台北台大館,hotel,25.0214784,121.5269138
way,355514668,安盛商旅,hotel,24.9815509,121.5385948
way,358340642,慶泰大飯店,hotel,25.0565798,121.5327884
way,359743631,柯旅天閣飯店,hotel,25.0412548,121.5728922
way,360834287,星辰大飯店,hotel,25.0364518,121.5275415
way,364511119,和逸台北民生館,hotel,25.0576351,121.5362921
way,366004483,蒲園飯店,hotel,25.0485113,121.5634722
way,366797536,密都飯店,hotel,25.0545359,121.5383978
way,368741387,密原宿,hotel,25.040905,121.5062514
way,370694235,台北馥華商旅,hotel,25.0592629,121.6139534
way,378143703,金來商旅,hotel,25.0372556,121.528287
way,384128260,台北美福大飯店,hotel,25.0805872,121.5537928
way,386016506,正旅館 藍,hotel,25.0450507,121.5148756
way,390780638,柯達大飯店,hotel,25.0593908,121.5335098
way,390780639,柯達大飯店台北二店,hotel,25.0618486,121.523173
way,390780643,雀客旅館,hotel,25.0595064,121.5335091
way,396400311,藝宿商旅,hotel,25.0532506,121.5139726
way,400582349,三德大飯店,hotel,25.0648623,121.5186871
way,400582356,台北商旅,hotel,25.0528477,121.5451455
way,400582357,雀客旅館台北南京,hotel,25.0516901,121.5376284
way,400582359,國王大飯店,hotel,25.0517862,121.5266621
way,400582380,神旺商務酒店,hotel,25.0518203,121.5270351
way,400582386,馥華商旅,hotel,25.0491387,121.5321479
way,409975934,洛基大飯店,hotel,25.045013,121.5138161
way,410479146,旅樂序旅館-3館,hotel,25.045053,121.5140273
way,413827287,鉑泊客,hotel,25.0450915,121.5133967
way,415405675,福泰桔子商務旅館,hotel,25.0512372,121.525363
way,419823266,台北世聯商旅,hotel,25.0507155,121.5318636
way,419823268,台北馥華商旅,hotel,25.0506948,121.5316246
way,420492856,台北萬豪酒店,hotel,25.0805332,121.5592831
way,427778337,天閣酒店,hotel,25.0826077,121.5241242
way,427778339,天雲旅店,hotel,25.082987,121.5242603
way,427778341,,hotel,25.0828372,121.5241262
way,430830508,賦樂旅居,hotel,25.0429182,121.5459883
way,432713673,路徒行旅,hotel,25.0450208,121.5102651
way,432713685,橙舍青年旅舍,hostel,25.0457199,121.507209
way,435162027,太平洋商旅,hotel,25.032426,121.5581062
way,435677317,新月商旅,hotel,25.0507416,121.5277521
way,443814826,海灣假日酒店,hotel,25.0041589,121.5986427
way,443814832,福容大飯店,hotel,25.004332,121.6004628
way,445322631,北投老爺酒店,hotel,25.137632,121.5037194
way,445337024,熱海飯店,hotel,25.136417,121.5093472
way,447197594,新店仲信會館,hotel,24.982289,121.5428437
way,447508286,洛基山水閣大飯店,hotel,25.0632999,121.5228592
way,448603606,旅樂序精品旅館站前五館,hotel,25.046117,121.5130956
way,449379844,情覓精品汽車旅館,motel,25.0838358,121.5599494
way,451928553,太豪大飯店,hotel,25.0562209,121.5447043
way,451934172,多郎明哥旅館,hotel,25.0337491,121.5369663
way,456394945,丹迪旅店,hotel,25.0338947,121.534658
way,457483395,高雅旅館,hotel,25.0248892,121.5526131
way,464942765,台北慕軒,hotel,25.0340125,121.5493833
way,473823333,遠東國際大飯店,hotel,25.0262646,121.549475
way,491364690,肯特商務飯店,hotel,25.0512818,121.4889099
way,493022181,皇家玫瑰旅館,hotel,25.0509176,121.5255627
way,494737309,台北老爺大酒店,hotel,25.0537444,121.5229609
way,494737324,京都商務旅館,hotel,25.0547198,121.5249795
way,494737326,優美旅館,hotel,25.0578382,121.5240166
way,494742439,友友大飯店,hotel,25.0547673,121.5242204
way,494806129,麗都飯店,hotel,25.0338637,121.5337567
way,495585319,101-S HOTEL 精品旅店,hotel,25.0432921,121.5043415
way,503782260,法皇商務飯店,hotel,25.0567143,121.6000539
way,505340535,東吳大飯店,hotel,25.0603781,121.5110983
way,508934465,歐遊國際連鎖精品旅館,hotel,25.0594451,121.4604034
way,509108637,華泰瑞舍,hotel,25.05722,121.5258817
way,510810931,印石時尚旅館,motel,24.9923007,121.575475
way,519055054,雀客藏居,hotel,25.1433763,121.5486677
way,525607600,宿舍大樓,hostel,25.1390022,121.5480138
way,526037405,探情motel,motel,24.9899471,121.4738777
way,528751765,同一大飯店,hotel,25.064645,121.5270169
way,529234038,台北警光會館,hostel,25.0481437,121.5084333
way,529491045,豪爵大飯店台北館,hotel,25.0651129,121.5315806
way,535650742,豐達大樓（酒店式公寓）,hostel,25.0540994,121.5513875
way,539762650,台北富信大飯店二館,hotel,25.0548953,121.6323799
way,539764332,芬多精加香汽車旅館,motel,25.0622923,121.6360934
way,547189959,加賀屋,hotel,25.1359842,121.506873
way,549464951,華大旅店,hotel,25.0426041,121.5686357
way,550468208,臺北國際大飯店,hotel,25.051781,121.5250946
way,551373871,希爾頓逸林酒店,hotel,25.0513798,121.5227647
way,551374196,盤古捷旅,hotel,25.0513047,121.5248088
way,551448963,東京國際飯店,hotel,25.0550779,121.5258751
way,554778090,五月家青年旅舍,hostel,25.0104933,121.5370143
way,555370217,矽谷溫泉會館,hostel,24.9829344,121.533159
way,556511658,洛碁大飯店南港館,hotel,25.0523098,121.6115403
way,557039975,圓山大飯店,hotel,25.0787252,121.5263883
way,587073871,台北豪城大飯店復興店,hotel,25.0356876,121.5439358
way,587075467,大來旅館,hotel,25.05437,121.5449095
way,608562614,有誠商旅,hotel,25.0978167,121.5449872
way,608653080,挪威森林汽車旅館,motel,25.154446,121.4613529
way,615772162,五月家青年旅舍北車館,hostel,25.0474448,121.5108725
way,616346341,國際會館,guest_house,25.0136232,121.5431979
way,616556921,新驛旅店,hotel,25.0462285,121.5143863
way,619244119,五行旅店,hostel,25.0686953,121.5194582
way,621951047,內江商旅,hotel,25.0415558,121.5058798
way,621951049,大榮Hotel,hotel,25.0415433,121.5061162
way,628783526,瓏山林台北中和飯店,hotel,24.9948641,121.485236
way,642477593,夾腳拖的家 長安 122,hotel,25.0504588,121.5180781
way,654313802,怡亨酒店,hotel,25.0337579,121.5483523
way,655068170,春天酒店,hotel,25.1377846,121.5136445
way,655068180,北投季節酒店,hotel,25.137595,121.5102841
way,655068193,亞太飯店,hotel,25.1369405,121.514701
way,655068194,北投麗禧溫泉酒店,hotel,25.1377478,121.5150118
way,657035012,台北馥敦飯店,hotel,25.0314602,121.5438841
way,658689502,見潭璞旅,hotel,25.0891948,121.5203517
way,659462696,瑞格商旅,hotel,25.0585205,121.5444733
way,659462698,台北馥敦飯店,hotel,25.0590841,121.544522
way,666930852,清翼居旅店童話館,hotel,25.045809,121.5123884
way,669261830,富濠飯店,hotel,25.0327273,121.5438272
way,676958765,CHECKinn,hotel,25.0587116,121.5374364
way,677361901,上賓大飯店,hotel,25.0606449,121.5250228
way,692419657,大欣Hotel,hotel,25.0530858,121.5233651
way,698462994,士林萬麗酒店,hotel,25.093107,121.5291607
way,699577967,華麗大飯店,hotel,25.0415226,121.5024689
way,712325716,城市商旅,hotel,25.0541394,121.5127623
way,712325717,富順大飯店,hotel,25.0541863,121.5126353
way,739470536,豪景大酒店,hotel,25.0445342,121.5014825
way,739470537,新豪景大酒店,hotel,25.0443184,121.5016517
way,751099999,台北美侖商旅,hotel,25.0531225,121.5303581
way,751100005,臺北時代寓所新酒店,hotel,25.0438129,121.5236779
way,760240151,城市商旅,hotel,25.0510247,121.5122363
way,764011462,歐華酒店,hotel,25.0681183,121.5254827
way,764242700,Swiio Hotel Daan,hotel,25.0361572,121.5461787
way,764255601,艾捷天麗大飯店,hotel,25.0512957,121.556274
way,766384213,hotelpoispois,hotel,25.0440272,121.5532615
way,772964637,城市商旅,hotel,25.0521662,121.5106364
way,776207457,凱旋酒店,hotel,25.0775382,121.5780833
way,780136290,尤里西斯旅店,hotel,25.0491425,121.5196171
way,815912863,和苑三井花園飯店,hotel,25.0417951,121.5341532
way,819389186,chez nous Hotel,hotel,25.0361231,121.5418141
way,824745533,板橋凱撒大飯店,hotel,25.0115519,121.4626751
way,824879823,香都大飯店,hotel,25.0482066,121.5279303
way,827759594,葫蘆商旅,hotel,25.0852868,121.5117469
way,866166011,宏都金殿商務飯店,hotel,25.0284716,121.5498002
way,870842541,金湯溫泉會館,hotel,25.2152263,121.6440549
way,870842542,萬里仙境溫泉會館,hotel,25.2158473,121.6427893
way,890967640,雀客旅館台北杭州,hotel,25.039999,121.5254402
way,904716781,新莊凱悅嘉軒酒店,hotel,25.0600057,121.4540931
way,916913289,格拉斯麗飯店台北,hotel,25.043214,121.5306407
way,927030070,陽明山美國渡假村,hotel,25.1358799,121.541536
way,940449168,天雲旅棧 台北中山,hotel,25.0503469,121.5233038
way,947774701,悅客商務飯店,hotel,25.0213197,121.4795966
way,948948336,力歐時尚旅館,hotel,25.0462843,121.5109608
way,955828231,伊都SPA會館,motel,25.0814086,121.561533
way,955828232,沐蘭精品旅館,motel,25.0810429,121.56187
way,961112126,宜家商旅,hotel,25.0742629,121.5897133
way,974194296,傑仕堡商旅板橋館,hotel,25.0176899,121.4693525
way,975263622,皇家季節酒店1館,hotel,25.0537467,121.5127984
way,975263623,皇家季節酒店2館,hotel,25.0537401,121.5126113
way,991034514,趣淘漫旅-台北,hotel,25.0112044,121.4633744
way,997127241,天閣酒店,hotel,25.0526548,121.5215656
way,1033763541,上格大飯店,hotel,25.0519595,121.4888134
way,1066079247,臺北大直英迪格酒店,hotel,25.0830826,121.5600644
way,1086755231,禾順商旅,hotel,25.0369303,121.4973015
way,1088381060,和昌商旅,hotel,25.0375424,121.5055131
way,1115861557,陽明山天籟渡假酒店,hotel,25.2020496,121.5952784
way,1115861567,出霧溫泉,hotel,25.2008822,121.5993234
way,1147283527,紅典酒店式公寓,hotel,25.041828,121.5644547
way,1156704547,銀河 Mini Hotel,hotel,25.041457,121.5075209
way,1191413851,品川商旅,hotel,25.0077324,121.4614344
way,1216424933,正旅館 信義館,hotel,25.0422603,121.5647791
way,1243377233,承攜行旅台北大稻埕,hotel,25.0539717,121.5088993
way,1245792608,探索汽車旅館 永和館,motel,25.01,121.5036432
way,1245794561,愛摩兒時尚旅館,motel,25.0077671,121.5022769
way,1291004581,瀚寓夏天,hotel,25.0154553,121.5314942
way,1303530695,北投晶泉丰旅,hotel,25.1380337,121.504326
way,1451304633,承攜行旅台北八德館,hotel,25.0490299,121.5640941
way,1505978796,悅池精品旅館,motel,25.00949,121.4833053
relation,3977078,聖本篤靈修中心,hostel,25.1688716,121.4507459
relation,6210816,伊倫商務旅館,hotel,25.0529011,121.5342037
relation,6595090,劍潭青年活動中心,hostel,25.0780892,121.5238674
relation,6642373,挪威森林,motel,24.9811523,121.5505225
relation,8932624,柯旅天閣飯店,hotel,25.0412548,121.5728922
relation,9246776,,hotel,25.0237201,121.5338781
relation,9306889,,hotel,25.0526987,121.5481227
relation,9306890,,hotel,25.0556676,121.5479842
relation,9306891,文華東方酒店,hotel,25.0556676,121.5479842
relation,17858620,中華電信陽明山會館,hostel,25.1448567,121.5652
relation,18579909,皇家季節酒店,hotel,25.0537467,121.5127057
